{
"type": "FeatureCollection",
"name": "public-transport-point",
"features": [
{ "type": "Feature", "properties": { "NAME": "Old Dairy Farm", "NAME_EN": null, "NAME_RU": null, "RAILWAY": null, "HIGHWAY": "bus_stop", "REF": null, "NETWORK": null, "PUBLIC_TRA": null, "OSM_TYPE": "node", "OSM_ID": 324859997 }, "geometry": { "type": "Point", "coordinates": [ 78.5274672, 17.4238205 ] } },
{ "type": "Feature", "properties": { "NAME": null, "NAME_EN": null, "NAME_RU": null, "RAILWAY": null, "HIGHWAY": "bus_stop", "REF": null, "NETWORK": null, "PUBLIC_TRA": null, "OSM_TYPE": "node", "OSM_ID": 4187313189 }, "geometry": { "type": "Point", "coordinates": [ 78.4801645, 17.371952 ] } },
{ "type": "Feature", "properties": { "NAME": "Law College", "NAME_EN": null, "NAME_RU": null, "RAILWAY": null, "HIGHWAY": "bus_stop", "REF": null, "NETWORK": null, "PUBLIC_TRA": null, "OSM_TYPE": "node", "OSM_ID": 324870748 }, "geometry": { "type": "Point", "coordinates": [ 78.5250554, 17.4148776 ] } },
{ "type": "Feature", "properties": { "NAME": null, "NAME_EN": null, "NAME_RU": null, "RAILWAY": null, "HIGHWAY": "bus_stop", "REF": null, "NETWORK": null, "PUBLIC_TRA": null, "OSM_TYPE": "node", "OSM_ID": 349177048 }, "geometry": { "type": "Point", "coordinates": [ 78.4426428, 17.4403384 ] } },
{ "type": "Feature", "properties": { "NAME": "Madhapur Petrol Pump", "NAME_EN": null, "NAME_RU": null, "RAILWAY": null, "HIGHWAY": "bus_stop", "REF": null, "NETWORK": null, "PUBLIC_TRA": null, "OSM_TYPE": "node", "OSM_ID": 349267769 }, "geometry": { "type": "Point", "coordinates": [ 78.3914668, 17.4411141 ] } },
{ "type": "Feature", "properties": { "NAME": "Boduppal Ambedkar statue", "NAME_EN": "Boduppal Ambedkar statue", "NAME_RU": null, "RAILWAY": null, "HIGHWAY": "bus_stop", "REF": null, "NETWORK": null, "PUBLIC_TRA": null, "OSM_TYPE": "node", "OSM_ID": 310446922 }, "geometry": { "type": "Point", "coordinates": [ 78.5845192, 17.4183656 ] } },
{ "type": "Feature", "properties": { "NAME": "Tarbund", "NAME_EN": null, "NAME_RU": null, "RAILWAY": null, "HIGHWAY": "bus_stop", "REF": null, "NETWORK": null, "PUBLIC_TRA": null, "OSM_TYPE": "node", "OSM_ID": 582824402 }, "geometry": { "type": "Point", "coordinates": [ 78.484099300000011, 17.456317 ] } },
{ "type": "Feature", "properties": { "NAME": null, "NAME_EN": null, "NAME_RU": null, "RAILWAY": null, "HIGHWAY": "bus_stop", "REF": null, "NETWORK": null, "PUBLIC_TRA": null, "OSM_TYPE": "node", "OSM_ID": 350456697 }, "geometry": { "type": "Point", "coordinates": [ 78.40232060000001, 17.4928865 ] } },
{ "type": "Feature", "properties": { "NAME": null, "NAME_EN": null, "NAME_RU": null, "RAILWAY": null, "HIGHWAY": "bus_stop", "REF": null, "NETWORK": null, "PUBLIC_TRA": null, "OSM_TYPE": "node", "OSM_ID": 626897367 }, "geometry": { "type": "Point", "coordinates": [ 78.4753984, 17.3744556 ] } },
{ "type": "Feature", "properties": { "NAME": "NCC", "NAME_EN": null, "NAME_RU": null, "RAILWAY": null, "HIGHWAY": "bus_stop", "REF": null, "NETWORK": null, "PUBLIC_TRA": null, "OSM_TYPE": "node", "OSM_ID": 324870018 }, "geometry": { "type": "Point", "coordinates": [ 78.516995900000012, 17.4060326 ] } },
{ "type": "Feature", "properties": { "NAME": "Engineering College", "NAME_EN": null, "NAME_RU": null, "RAILWAY": null, "HIGHWAY": "bus_stop", "REF": null, "NETWORK": null, "PUBLIC_TRA": null, "OSM_TYPE": "node", "OSM_ID": 324870393 }, "geometry": { "type": "Point", "coordinates": [ 78.520102900000012, 17.4091039 ] } },
{ "type": "Feature", "properties": { "NAME": "devaryamjal", "NAME_EN": null, "NAME_RU": null, "RAILWAY": null, "HIGHWAY": "bus_stop", "REF": null, "NETWORK": null, "PUBLIC_TRA": null, "OSM_TYPE": "node", "OSM_ID": 4258215403 }, "geometry": { "type": "Point", "coordinates": [ 78.5230714, 17.5677743 ] } },
{ "type": "Feature", "properties": { "NAME": "Chhota Anjaiah Nagar", "NAME_EN": null, "NAME_RU": null, "RAILWAY": null, "HIGHWAY": "bus_stop", "REF": null, "NETWORK": null, "PUBLIC_TRA": null, "OSM_TYPE": "node", "OSM_ID": 308971546 }, "geometry": { "type": "Point", "coordinates": [ 78.3634745, 17.4473271 ] } },
{ "type": "Feature", "properties": { "NAME": "Arts College", "NAME_EN": null, "NAME_RU": null, "RAILWAY": null, "HIGHWAY": "bus_stop", "REF": null, "NETWORK": null, "PUBLIC_TRA": null, "OSM_TYPE": "node", "OSM_ID": 324871542 }, "geometry": { "type": "Point", "coordinates": [ 78.527347, 17.4203646 ] } },
{ "type": "Feature", "properties": { "NAME": null, "NAME_EN": null, "NAME_RU": null, "RAILWAY": null, "HIGHWAY": "bus_stop", "REF": null, "NETWORK": null, "PUBLIC_TRA": null, "OSM_TYPE": "node", "OSM_ID": 6308233004 }, "geometry": { "type": "Point", "coordinates": [ 78.3769932, 17.3526315 ] } },
{ "type": "Feature", "properties": { "NAME": null, "NAME_EN": null, "NAME_RU": null, "RAILWAY": null, "HIGHWAY": "bus_stop", "REF": null, "NETWORK": null, "PUBLIC_TRA": null, "OSM_TYPE": "node", "OSM_ID": 4558332099 }, "geometry": { "type": "Point", "coordinates": [ 78.6751636, 18.0400667 ] } },
{ "type": "Feature", "properties": { "NAME": "Bandlaguda Bus Stop", "NAME_EN": null, "NAME_RU": null, "RAILWAY": null, "HIGHWAY": "bus_stop", "REF": null, "NETWORK": null, "PUBLIC_TRA": null, "OSM_TYPE": "node", "OSM_ID": 6308192283 }, "geometry": { "type": "Point", "coordinates": [ 78.3880278, 17.3595322 ] } },
{ "type": "Feature", "properties": { "NAME": null, "NAME_EN": null, "NAME_RU": null, "RAILWAY": null, "HIGHWAY": "bus_stop", "REF": null, "NETWORK": null, "PUBLIC_TRA": null, "OSM_TYPE": "node", "OSM_ID": 6295706426 }, "geometry": { "type": "Point", "coordinates": [ 78.5616593, 17.4623757 ] } },
{ "type": "Feature", "properties": { "NAME": "Tarnaka Bus Stop", "NAME_EN": null, "NAME_RU": null, "RAILWAY": null, "HIGHWAY": "bus_stop", "REF": null, "NETWORK": null, "PUBLIC_TRA": null, "OSM_TYPE": "node", "OSM_ID": 324858173 }, "geometry": { "type": "Point", "coordinates": [ 78.531389600000011, 17.4262037 ] } },
{ "type": "Feature", "properties": { "NAME": "Bus stop 2", "NAME_EN": null, "NAME_RU": null, "RAILWAY": null, "HIGHWAY": "bus_stop", "REF": null, "NETWORK": null, "PUBLIC_TRA": null, "OSM_TYPE": "node", "OSM_ID": 5405054116 }, "geometry": { "type": "Point", "coordinates": [ 78.378565200000011, 17.4322281 ] } },
{ "type": "Feature", "properties": { "NAME": "APSRTC Hospital Bus Stop", "NAME_EN": null, "NAME_RU": null, "RAILWAY": null, "HIGHWAY": "bus_stop", "REF": null, "NETWORK": null, "PUBLIC_TRA": null, "OSM_TYPE": "node", "OSM_ID": 324859710 }, "geometry": { "type": "Point", "coordinates": [ 78.5302396, 17.4259908 ] } },
{ "type": "Feature", "properties": { "NAME": null, "NAME_EN": null, "NAME_RU": null, "RAILWAY": null, "HIGHWAY": "bus_stop", "REF": null, "NETWORK": null, "PUBLIC_TRA": null, "OSM_TYPE": "node", "OSM_ID": 6335405735 }, "geometry": { "type": "Point", "coordinates": [ 78.3945966, 17.4949272 ] } },
{ "type": "Feature", "properties": { "NAME": "Madhapur Image Gardens", "NAME_EN": null, "NAME_RU": null, "RAILWAY": null, "HIGHWAY": "bus_stop", "REF": null, "NETWORK": null, "PUBLIC_TRA": null, "OSM_TYPE": "node", "OSM_ID": 5942740806 }, "geometry": { "type": "Point", "coordinates": [ 78.3850424, 17.4461737 ] } },
{ "type": "Feature", "properties": { "NAME": "Madhapur Image Gardens", "NAME_EN": null, "NAME_RU": null, "RAILWAY": null, "HIGHWAY": "bus_stop", "REF": null, "NETWORK": null, "PUBLIC_TRA": null, "OSM_TYPE": "node", "OSM_ID": 5942734589 }, "geometry": { "type": "Point", "coordinates": [ 78.3853261, 17.4462587 ] } },
{ "type": "Feature", "properties": { "NAME": "kamala nagar bus stop", "NAME_EN": null, "NAME_RU": null, "RAILWAY": null, "HIGHWAY": "bus_stop", "REF": "tsrtc", "NETWORK": null, "PUBLIC_TRA": "platform", "OSM_TYPE": "node", "OSM_ID": 5826355255 }, "geometry": { "type": "Point", "coordinates": [ 78.579141400000012, 17.3297742 ] } },
{ "type": "Feature", "properties": { "NAME": "Paradise", "NAME_EN": null, "NAME_RU": null, "RAILWAY": null, "HIGHWAY": "bus_stop", "REF": null, "NETWORK": null, "PUBLIC_TRA": null, "OSM_TYPE": "node", "OSM_ID": 582824403 }, "geometry": { "type": "Point", "coordinates": [ 78.4871598, 17.4451266 ] } },
{ "type": "Feature", "properties": { "NAME": null, "NAME_EN": null, "NAME_RU": null, "RAILWAY": null, "HIGHWAY": "bus_stop", "REF": null, "NETWORK": null, "PUBLIC_TRA": null, "OSM_TYPE": "node", "OSM_ID": 354662996 }, "geometry": { "type": "Point", "coordinates": [ 78.4440447, 17.4364999 ] } },
{ "type": "Feature", "properties": { "NAME": null, "NAME_EN": null, "NAME_RU": null, "RAILWAY": null, "HIGHWAY": "bus_stop", "REF": null, "NETWORK": null, "PUBLIC_TRA": null, "OSM_TYPE": "node", "OSM_ID": 5384661428 }, "geometry": { "type": "Point", "coordinates": [ 79.3956966, 17.1682876 ] } },
{ "type": "Feature", "properties": { "NAME": "hayathnagar bus stop", "NAME_EN": null, "NAME_RU": null, "RAILWAY": null, "HIGHWAY": "bus_stop", "REF": null, "NETWORK": null, "PUBLIC_TRA": "platform", "OSM_TYPE": "node", "OSM_ID": 6246310248 }, "geometry": { "type": "Point", "coordinates": [ 78.6047747, 17.3273518 ] } },
{ "type": "Feature", "properties": { "NAME": null, "NAME_EN": null, "NAME_RU": null, "RAILWAY": null, "HIGHWAY": "bus_stop", "REF": null, "NETWORK": null, "PUBLIC_TRA": null, "OSM_TYPE": "node", "OSM_ID": 5678695721 }, "geometry": { "type": "Point", "coordinates": [ 78.37622970000001, 17.4064622 ] } },
{ "type": "Feature", "properties": { "NAME": "Platform 2", "NAME_EN": null, "NAME_RU": null, "RAILWAY": "platform", "HIGHWAY": null, "REF": "2", "NETWORK": null, "PUBLIC_TRA": "platform", "OSM_TYPE": "node", "OSM_ID": 6167580713 }, "geometry": { "type": "Point", "coordinates": [ 79.4494037, 18.8792428 ] } },
{ "type": "Feature", "properties": { "NAME": "Platform 1", "NAME_EN": null, "NAME_RU": null, "RAILWAY": "platform", "HIGHWAY": null, "REF": "1", "NETWORK": null, "PUBLIC_TRA": "platform", "OSM_TYPE": "node", "OSM_ID": 6167580712 }, "geometry": { "type": "Point", "coordinates": [ 79.449205, 18.879246 ] } },
{ "type": "Feature", "properties": { "NAME": null, "NAME_EN": null, "NAME_RU": null, "RAILWAY": null, "HIGHWAY": "bus_stop", "REF": null, "NETWORK": null, "PUBLIC_TRA": null, "OSM_TYPE": "node", "OSM_ID": 5608451452 }, "geometry": { "type": "Point", "coordinates": [ 78.5173626, 17.4197433 ] } },
{ "type": "Feature", "properties": { "NAME": "Rayannapeta", "NAME_EN": null, "NAME_RU": null, "RAILWAY": null, "HIGHWAY": "bus_stop", "REF": null, "NETWORK": null, "PUBLIC_TRA": null, "OSM_TYPE": "node", "OSM_ID": 5601760008 }, "geometry": { "type": "Point", "coordinates": [ 80.331757700000011, 16.9935279 ] } },
{ "type": "Feature", "properties": { "NAME": "S.R.Nagar Bus Stop", "NAME_EN": null, "NAME_RU": null, "RAILWAY": null, "HIGHWAY": "bus_stop", "REF": null, "NETWORK": null, "PUBLIC_TRA": null, "OSM_TYPE": "node", "OSM_ID": 353027468 }, "geometry": { "type": "Point", "coordinates": [ 78.443449, 17.4374277 ] } },
{ "type": "Feature", "properties": { "NAME": "Domalguada Bus top", "NAME_EN": null, "NAME_RU": null, "RAILWAY": null, "HIGHWAY": "bus_stop", "REF": null, "NETWORK": null, "PUBLIC_TRA": null, "OSM_TYPE": "node", "OSM_ID": 5486709289 }, "geometry": { "type": "Point", "coordinates": [ 78.486516200000011, 17.4100627 ] } },
{ "type": "Feature", "properties": { "NAME": "Santoshnagar", "NAME_EN": null, "NAME_RU": null, "RAILWAY": null, "HIGHWAY": "bus_stop", "REF": null, "NETWORK": null, "PUBLIC_TRA": null, "OSM_TYPE": "node", "OSM_ID": 5448558991 }, "geometry": { "type": "Point", "coordinates": [ 78.508186, 17.3466624 ] } },
{ "type": "Feature", "properties": { "NAME": "Ladies Hostel", "NAME_EN": null, "NAME_RU": null, "RAILWAY": null, "HIGHWAY": "bus_stop", "REF": null, "NETWORK": null, "PUBLIC_TRA": null, "OSM_TYPE": "node", "OSM_ID": 324871124 }, "geometry": { "type": "Point", "coordinates": [ 78.5218367, 17.4118475 ] } },
{ "type": "Feature", "properties": { "NAME": null, "NAME_EN": null, "NAME_RU": null, "RAILWAY": null, "HIGHWAY": "bus_stop", "REF": null, "NETWORK": null, "PUBLIC_TRA": null, "OSM_TYPE": "node", "OSM_ID": 349017544 }, "geometry": { "type": "Point", "coordinates": [ 78.3948956, 17.4957688 ] } },
{ "type": "Feature", "properties": { "NAME": null, "NAME_EN": null, "NAME_RU": null, "RAILWAY": null, "HIGHWAY": "bus_stop", "REF": null, "NETWORK": null, "PUBLIC_TRA": null, "OSM_TYPE": "node", "OSM_ID": 5608452002 }, "geometry": { "type": "Point", "coordinates": [ 78.5193059, 17.4176627 ] } },
{ "type": "Feature", "properties": { "NAME": "Ramantapur studio bustop", "NAME_EN": "Ramantapur studio bustop", "NAME_RU": null, "RAILWAY": null, "HIGHWAY": "bus_stop", "REF": null, "NETWORK": null, "PUBLIC_TRA": null, "OSM_TYPE": "node", "OSM_ID": 4432379491 }, "geometry": { "type": "Point", "coordinates": [ 78.5293385, 17.3965091 ] } },
{ "type": "Feature", "properties": { "NAME": "Madhapur Petrol Pump", "NAME_EN": null, "NAME_RU": null, "RAILWAY": null, "HIGHWAY": "bus_stop", "REF": null, "NETWORK": null, "PUBLIC_TRA": null, "OSM_TYPE": "node", "OSM_ID": 349267780 }, "geometry": { "type": "Point", "coordinates": [ 78.3913218, 17.4409752 ] } },
{ "type": "Feature", "properties": { "NAME": "Sikh Village", "NAME_EN": null, "NAME_RU": null, "RAILWAY": null, "HIGHWAY": "bus_stop", "REF": null, "NETWORK": null, "PUBLIC_TRA": null, "OSM_TYPE": "node", "OSM_ID": 582824401 }, "geometry": { "type": "Point", "coordinates": [ 78.4900888, 17.4566 ] } },
{ "type": "Feature", "properties": { "NAME": "Gaddapotharam", "NAME_EN": null, "NAME_RU": null, "RAILWAY": null, "HIGHWAY": "bus_stop", "REF": null, "NETWORK": null, "PUBLIC_TRA": null, "OSM_TYPE": "node", "OSM_ID": 5796788055 }, "geometry": { "type": "Point", "coordinates": [ 78.3755356, 17.6059354 ] } },
{ "type": "Feature", "properties": { "NAME": "Airport bus stop", "NAME_EN": null, "NAME_RU": null, "RAILWAY": null, "HIGHWAY": "bus_stop", "REF": null, "NETWORK": null, "PUBLIC_TRA": null, "OSM_TYPE": "node", "OSM_ID": 5471994926 }, "geometry": { "type": "Point", "coordinates": [ 78.4579947, 17.4026831 ] } },
{ "type": "Feature", "properties": { "NAME": null, "NAME_EN": null, "NAME_RU": null, "RAILWAY": null, "HIGHWAY": null, "REF": null, "NETWORK": null, "PUBLIC_TRA": "platform", "OSM_TYPE": "node", "OSM_ID": 5683822944 }, "geometry": { "type": "Point", "coordinates": [ 78.9027722, 18.1604123 ] } },
{ "type": "Feature", "properties": { "NAME": "Platform 3", "NAME_EN": null, "NAME_RU": null, "RAILWAY": "platform", "HIGHWAY": null, "REF": "3", "NETWORK": null, "PUBLIC_TRA": "platform", "OSM_TYPE": "node", "OSM_ID": 6167580715 }, "geometry": { "type": "Point", "coordinates": [ 79.449474200000012, 18.8792438 ] } },
{ "type": "Feature", "properties": { "NAME": "Gachibowli flyover bustop", "NAME_EN": null, "NAME_RU": null, "RAILWAY": null, "HIGHWAY": "bus_stop", "REF": null, "NETWORK": null, "PUBLIC_TRA": null, "OSM_TYPE": "node", "OSM_ID": 5405055553 }, "geometry": { "type": "Point", "coordinates": [ 78.360792600000011, 17.4408024 ] } },
{ "type": "Feature", "properties": { "NAME": null, "NAME_EN": null, "NAME_RU": null, "RAILWAY": null, "HIGHWAY": "bus_stop", "REF": null, "NETWORK": null, "PUBLIC_TRA": null, "OSM_TYPE": "node", "OSM_ID": 349177449 }, "geometry": { "type": "Point", "coordinates": [ 78.4404626, 17.4430816 ] } },
{ "type": "Feature", "properties": { "NAME": "Uppal 'X' Road Bus Stop", "NAME_EN": "Uppal 'X' Road Bus Stop", "NAME_RU": null, "RAILWAY": null, "HIGHWAY": "bus_stop", "REF": null, "NETWORK": null, "PUBLIC_TRA": null, "OSM_TYPE": "node", "OSM_ID": 5432858082 }, "geometry": { "type": "Point", "coordinates": [ 78.55968390000001, 17.401622 ] } },
{ "type": "Feature", "properties": { "NAME": "Bus Parking 2", "NAME_EN": null, "NAME_RU": null, "RAILWAY": null, "HIGHWAY": "bus_stop", "REF": null, "NETWORK": null, "PUBLIC_TRA": "platform", "OSM_TYPE": "node", "OSM_ID": 5694527072 }, "geometry": { "type": "Point", "coordinates": [ 78.4432861, 17.5970849 ] } },
{ "type": "Feature", "properties": { "NAME": null, "NAME_EN": null, "NAME_RU": null, "RAILWAY": null, "HIGHWAY": "bus_stop", "REF": null, "NETWORK": null, "PUBLIC_TRA": "platform", "OSM_TYPE": "node", "OSM_ID": 5425191917 }, "geometry": { "type": "Point", "coordinates": [ 78.4851694, 17.3789951 ] } },
{ "type": "Feature", "properties": { "NAME": null, "NAME_EN": null, "NAME_RU": null, "RAILWAY": null, "HIGHWAY": "platform", "REF": null, "NETWORK": null, "PUBLIC_TRA": "platform", "OSM_TYPE": "node", "OSM_ID": 5425191916 }, "geometry": { "type": "Point", "coordinates": [ 78.4855141, 17.3787314 ] } },
{ "type": "Feature", "properties": { "NAME": null, "NAME_EN": null, "NAME_RU": null, "RAILWAY": null, "HIGHWAY": "bus_stop", "REF": null, "NETWORK": null, "PUBLIC_TRA": null, "OSM_TYPE": "node", "OSM_ID": 5384739377 }, "geometry": { "type": "Point", "coordinates": [ 78.8179844, 17.2729211 ] } },
{ "type": "Feature", "properties": { "NAME": null, "NAME_EN": null, "NAME_RU": null, "RAILWAY": null, "HIGHWAY": "bus_stop", "REF": null, "NETWORK": null, "PUBLIC_TRA": null, "OSM_TYPE": "node", "OSM_ID": 5384667477 }, "geometry": { "type": "Point", "coordinates": [ 79.2662693, 17.1769232 ] } },
{ "type": "Feature", "properties": { "NAME": "IIIT Bus stop1", "NAME_EN": null, "NAME_RU": null, "RAILWAY": null, "HIGHWAY": "bus_stop", "REF": null, "NETWORK": null, "PUBLIC_TRA": null, "OSM_TYPE": "node", "OSM_ID": 5405055292 }, "geometry": { "type": "Point", "coordinates": [ 78.351717, 17.4457096 ] } },
{ "type": "Feature", "properties": { "NAME": null, "NAME_EN": null, "NAME_RU": null, "RAILWAY": null, "HIGHWAY": "bus_stop", "REF": null, "NETWORK": null, "PUBLIC_TRA": null, "OSM_TYPE": "node", "OSM_ID": 5384661447 }, "geometry": { "type": "Point", "coordinates": [ 79.5221486, 17.1648638 ] } },
{ "type": "Feature", "properties": { "NAME": null, "NAME_EN": null, "NAME_RU": null, "RAILWAY": null, "HIGHWAY": "bus_stop", "REF": null, "NETWORK": null, "PUBLIC_TRA": null, "OSM_TYPE": "node", "OSM_ID": 5384661444 }, "geometry": { "type": "Point", "coordinates": [ 79.3955411, 17.1687694 ] } },
{ "type": "Feature", "properties": { "NAME": null, "NAME_EN": null, "NAME_RU": null, "RAILWAY": null, "HIGHWAY": "bus_stop", "REF": null, "NETWORK": null, "PUBLIC_TRA": null, "OSM_TYPE": "node", "OSM_ID": 5384661442 }, "geometry": { "type": "Point", "coordinates": [ 79.571544100000011, 17.1526855 ] } },
{ "type": "Feature", "properties": { "NAME": null, "NAME_EN": null, "NAME_RU": null, "RAILWAY": null, "HIGHWAY": "bus_stop", "REF": null, "NETWORK": null, "PUBLIC_TRA": null, "OSM_TYPE": "node", "OSM_ID": 5384765180 }, "geometry": { "type": "Point", "coordinates": [ 78.930949500000011, 17.2431754 ] } },
{ "type": "Feature", "properties": { "NAME": "Bapuji Nagar Stop", "NAME_EN": null, "NAME_RU": null, "RAILWAY": null, "HIGHWAY": "bus_stop", "REF": null, "NETWORK": null, "PUBLIC_TRA": null, "OSM_TYPE": "node", "OSM_ID": 582824406 }, "geometry": { "type": "Point", "coordinates": [ 78.4818498, 17.4677226 ] } },
{ "type": "Feature", "properties": { "NAME": null, "NAME_EN": null, "NAME_RU": null, "RAILWAY": null, "HIGHWAY": "bus_stop", "REF": null, "NETWORK": null, "PUBLIC_TRA": null, "OSM_TYPE": "node", "OSM_ID": 5608452003 }, "geometry": { "type": "Point", "coordinates": [ 78.5194239, 17.4177407 ] } },
{ "type": "Feature", "properties": { "NAME": "Shaikpet Dargah", "NAME_EN": null, "NAME_RU": null, "RAILWAY": null, "HIGHWAY": "bus_stop", "REF": null, "NETWORK": null, "PUBLIC_TRA": "platform", "OSM_TYPE": "node", "OSM_ID": 5425191915 }, "geometry": { "type": "Point", "coordinates": [ 78.3951039, 17.4129007 ] } },
{ "type": "Feature", "properties": { "NAME": null, "NAME_EN": null, "NAME_RU": null, "RAILWAY": null, "HIGHWAY": "bus_stop", "REF": null, "NETWORK": null, "PUBLIC_TRA": "platform", "OSM_TYPE": "node", "OSM_ID": 5380799366 }, "geometry": { "type": "Point", "coordinates": [ 77.7695992, 15.99987 ] } },
{ "type": "Feature", "properties": { "NAME": "chintal bus stop", "NAME_EN": null, "NAME_RU": null, "RAILWAY": null, "HIGHWAY": "bus_stop", "REF": null, "NETWORK": null, "PUBLIC_TRA": "platform", "OSM_TYPE": "node", "OSM_ID": 5683812465 }, "geometry": { "type": "Point", "coordinates": [ 78.451957900000011, 17.4948321 ] } },
{ "type": "Feature", "properties": { "NAME": null, "NAME_EN": null, "NAME_RU": null, "RAILWAY": null, "HIGHWAY": "bus_stop", "REF": null, "NETWORK": null, "PUBLIC_TRA": null, "OSM_TYPE": "node", "OSM_ID": 5384661432 }, "geometry": { "type": "Point", "coordinates": [ 79.4867273, 17.1607636 ] } },
{ "type": "Feature", "properties": { "NAME": null, "NAME_EN": null, "NAME_RU": null, "RAILWAY": null, "HIGHWAY": "bus_stop", "REF": null, "NETWORK": null, "PUBLIC_TRA": null, "OSM_TYPE": "node", "OSM_ID": 6308233005 }, "geometry": { "type": "Point", "coordinates": [ 78.3764917, 17.3520925 ] } },
{ "type": "Feature", "properties": { "NAME": null, "NAME_EN": null, "NAME_RU": null, "RAILWAY": null, "HIGHWAY": "bus_stop", "REF": null, "NETWORK": null, "PUBLIC_TRA": null, "OSM_TYPE": "node", "OSM_ID": 5384667474 }, "geometry": { "type": "Point", "coordinates": [ 79.2645474, 17.1778149 ] } },
{ "type": "Feature", "properties": { "NAME": null, "NAME_EN": null, "NAME_RU": null, "RAILWAY": null, "HIGHWAY": "bus_stop", "REF": null, "NETWORK": null, "PUBLIC_TRA": null, "OSM_TYPE": "node", "OSM_ID": 5608451366 }, "geometry": { "type": "Point", "coordinates": [ 78.5167256, 17.4201797 ] } },
{ "type": "Feature", "properties": { "NAME": "Fever Hospital", "NAME_EN": null, "NAME_RU": null, "RAILWAY": null, "HIGHWAY": "bus_stop", "REF": null, "NETWORK": null, "PUBLIC_TRA": null, "OSM_TYPE": "node", "OSM_ID": 6308211122 }, "geometry": { "type": "Point", "coordinates": [ 78.5024824, 17.3954325 ] } },
{ "type": "Feature", "properties": { "NAME": "Domalguada Bus top", "NAME_EN": null, "NAME_RU": null, "RAILWAY": null, "HIGHWAY": "bus_stop", "REF": null, "NETWORK": null, "PUBLIC_TRA": null, "OSM_TYPE": "node", "OSM_ID": 315063655 }, "geometry": { "type": "Point", "coordinates": [ 78.4865087, 17.4101588 ] } },
{ "type": "Feature", "properties": { "NAME": "Masab Tank Bus Stop", "NAME_EN": null, "NAME_RU": null, "RAILWAY": null, "HIGHWAY": "bus_stop", "REF": null, "NETWORK": null, "PUBLIC_TRA": null, "OSM_TYPE": "node", "OSM_ID": 5214080468 }, "geometry": { "type": "Point", "coordinates": [ 78.4522692, 17.4041862 ] } },
{ "type": "Feature", "properties": { "NAME": "Jamestreet bus stop", "NAME_EN": null, "NAME_RU": null, "RAILWAY": null, "HIGHWAY": "bus_stop", "REF": null, "NETWORK": null, "PUBLIC_TRA": "platform", "OSM_TYPE": "node", "OSM_ID": 5596353861 }, "geometry": { "type": "Point", "coordinates": [ 78.488637, 17.4358309 ] } },
{ "type": "Feature", "properties": { "NAME": "HPS Bus Stop", "NAME_EN": null, "NAME_RU": null, "RAILWAY": null, "HIGHWAY": "bus_stop", "REF": null, "NETWORK": null, "PUBLIC_TRA": null, "OSM_TYPE": "node", "OSM_ID": 5432842171 }, "geometry": { "type": "Point", "coordinates": [ 78.5374457, 17.3996282 ] } },
{ "type": "Feature", "properties": { "NAME": null, "NAME_EN": null, "NAME_RU": null, "RAILWAY": null, "HIGHWAY": "bus_stop", "REF": null, "NETWORK": null, "PUBLIC_TRA": null, "OSM_TYPE": "node", "OSM_ID": 5384765181 }, "geometry": { "type": "Point", "coordinates": [ 78.931614700000011, 17.2424732 ] } },
{ "type": "Feature", "properties": { "NAME": null, "NAME_EN": null, "NAME_RU": null, "RAILWAY": null, "HIGHWAY": "bus_stop", "REF": null, "NETWORK": null, "PUBLIC_TRA": null, "OSM_TYPE": "node", "OSM_ID": 5384661438 }, "geometry": { "type": "Point", "coordinates": [ 79.5475276, 17.163485 ] } },
{ "type": "Feature", "properties": { "NAME": null, "NAME_EN": null, "NAME_RU": null, "RAILWAY": null, "HIGHWAY": "bus_stop", "REF": null, "NETWORK": null, "PUBLIC_TRA": null, "OSM_TYPE": "node", "OSM_ID": 5384752888 }, "geometry": { "type": "Point", "coordinates": [ 78.844194800000011, 17.2603479 ] } },
{ "type": "Feature", "properties": { "NAME": null, "NAME_EN": null, "NAME_RU": null, "RAILWAY": null, "HIGHWAY": "bus_stop", "REF": null, "NETWORK": null, "PUBLIC_TRA": null, "OSM_TYPE": "node", "OSM_ID": 5384661437 }, "geometry": { "type": "Point", "coordinates": [ 79.5714744, 17.1522242 ] } },
{ "type": "Feature", "properties": { "NAME": null, "NAME_EN": null, "NAME_RU": null, "RAILWAY": null, "HIGHWAY": "bus_stop", "REF": null, "NETWORK": null, "PUBLIC_TRA": null, "OSM_TYPE": "node", "OSM_ID": 5384661436 }, "geometry": { "type": "Point", "coordinates": [ 79.5046552, 17.1606096 ] } },
{ "type": "Feature", "properties": { "NAME": "Bustop", "NAME_EN": null, "NAME_RU": null, "RAILWAY": null, "HIGHWAY": "bus_stop", "REF": null, "NETWORK": null, "PUBLIC_TRA": null, "OSM_TYPE": "node", "OSM_ID": 5405052395 }, "geometry": { "type": "Point", "coordinates": [ 78.351936200000011, 17.4455592 ] } },
{ "type": "Feature", "properties": { "NAME": "Lingampally", "NAME_EN": "Lingampally", "NAME_RU": null, "RAILWAY": null, "HIGHWAY": "bus_stop", "REF": null, "NETWORK": null, "PUBLIC_TRA": null, "OSM_TYPE": "node", "OSM_ID": 4672021895 }, "geometry": { "type": "Point", "coordinates": [ 78.3159771, 17.4951023 ] } },
{ "type": "Feature", "properties": { "NAME": null, "NAME_EN": null, "NAME_RU": null, "RAILWAY": null, "HIGHWAY": "bus_stop", "REF": null, "NETWORK": null, "PUBLIC_TRA": null, "OSM_TYPE": "node", "OSM_ID": 5384661446 }, "geometry": { "type": "Point", "coordinates": [ 79.5358439, 17.1588515 ] } },
{ "type": "Feature", "properties": { "NAME": null, "NAME_EN": null, "NAME_RU": null, "RAILWAY": null, "HIGHWAY": "bus_stop", "REF": null, "NETWORK": null, "PUBLIC_TRA": null, "OSM_TYPE": "node", "OSM_ID": 5384661443 }, "geometry": { "type": "Point", "coordinates": [ 79.519745300000011, 17.1643105 ] } },
{ "type": "Feature", "properties": { "NAME": null, "NAME_EN": null, "NAME_RU": null, "RAILWAY": null, "HIGHWAY": "bus_stop", "REF": null, "NETWORK": null, "PUBLIC_TRA": null, "OSM_TYPE": "node", "OSM_ID": 5384739381 }, "geometry": { "type": "Point", "coordinates": [ 78.8156911, 17.2736536 ] } },
{ "type": "Feature", "properties": { "NAME": "Jaipuri Last bus stop", "NAME_EN": null, "NAME_RU": null, "RAILWAY": null, "HIGHWAY": "bus_stop", "REF": null, "NETWORK": null, "PUBLIC_TRA": null, "OSM_TYPE": "node", "OSM_ID": 4791192809 }, "geometry": { "type": "Point", "coordinates": [ 78.5724086, 17.379321 ] } },
{ "type": "Feature", "properties": { "NAME": null, "NAME_EN": null, "NAME_RU": null, "RAILWAY": null, "HIGHWAY": "bus_stop", "REF": null, "NETWORK": null, "PUBLIC_TRA": null, "OSM_TYPE": "node", "OSM_ID": 5384661430 }, "geometry": { "type": "Point", "coordinates": [ 79.4866522, 17.1612657 ] } },
{ "type": "Feature", "properties": { "NAME": "Saraswathi temple, wargal", "NAME_EN": "Saraswathi temple, wargal", "NAME_RU": null, "RAILWAY": null, "HIGHWAY": "bus_stop", "REF": null, "NETWORK": null, "PUBLIC_TRA": null, "OSM_TYPE": "node", "OSM_ID": 4553232690 }, "geometry": { "type": "Point", "coordinates": [ 78.6204625, 17.7713247 ] } },
{ "type": "Feature", "properties": { "NAME": "Mulugu", "NAME_EN": "Mulugu", "NAME_RU": null, "RAILWAY": null, "HIGHWAY": "bus_stop", "REF": null, "NETWORK": null, "PUBLIC_TRA": null, "OSM_TYPE": "node", "OSM_ID": 4553232689 }, "geometry": { "type": "Point", "coordinates": [ 78.631143, 17.743124 ] } },
{ "type": "Feature", "properties": { "NAME": "Shamshabad bus stop", "NAME_EN": "Shamshabad bus stop", "NAME_RU": null, "RAILWAY": null, "HIGHWAY": "bus_stop", "REF": null, "NETWORK": null, "PUBLIC_TRA": null, "OSM_TYPE": "node", "OSM_ID": 4578677492 }, "geometry": { "type": "Point", "coordinates": [ 78.38767630000001, 17.2625542 ] } },
{ "type": "Feature", "properties": { "NAME": "Chanikyapuri Colony Bus Stop", "NAME_EN": null, "NAME_RU": null, "RAILWAY": null, "HIGHWAY": "bus_stop", "REF": null, "NETWORK": null, "PUBLIC_TRA": null, "OSM_TYPE": "node", "OSM_ID": 4978986461 }, "geometry": { "type": "Point", "coordinates": [ 78.5638404, 17.3627658 ] } },
{ "type": "Feature", "properties": { "NAME": "Saidabad bus stop", "NAME_EN": "Saidabad bus stop", "NAME_RU": null, "RAILWAY": null, "HIGHWAY": "bus_stop", "REF": null, "NETWORK": null, "PUBLIC_TRA": null, "OSM_TYPE": "node", "OSM_ID": 4796526725 }, "geometry": { "type": "Point", "coordinates": [ 78.5045666, 17.3603573 ] } },
{ "type": "Feature", "properties": { "NAME": null, "NAME_EN": null, "NAME_RU": null, "RAILWAY": null, "HIGHWAY": "bus_stop", "REF": null, "NETWORK": null, "PUBLIC_TRA": null, "OSM_TYPE": "node", "OSM_ID": 5384661435 }, "geometry": { "type": "Point", "coordinates": [ 79.5047318, 17.1600945 ] } },
{ "type": "Feature", "properties": { "NAME": "Madhapur-Hi Tech city-Kondapur", "NAME_EN": "Madhapur-Hi Tech city-Kondapur", "NAME_RU": null, "RAILWAY": null, "HIGHWAY": "bus_stop", "REF": null, "NETWORK": null, "PUBLIC_TRA": null, "OSM_TYPE": "node", "OSM_ID": 4706061589 }, "geometry": { "type": "Point", "coordinates": [ 78.3959296, 17.4395401 ] } },
{ "type": "Feature", "properties": { "NAME": "Hitch city", "NAME_EN": null, "NAME_RU": null, "RAILWAY": null, "HIGHWAY": "bus_stop", "REF": null, "NETWORK": null, "PUBLIC_TRA": null, "OSM_TYPE": "node", "OSM_ID": 4557677889 }, "geometry": { "type": "Point", "coordinates": [ 78.388807300000011, 17.4345135 ] } },
{ "type": "Feature", "properties": { "NAME": "Gangaram", "NAME_EN": "Gangaram", "NAME_RU": null, "RAILWAY": null, "HIGHWAY": "bus_stop", "REF": null, "NETWORK": null, "PUBLIC_TRA": null, "OSM_TYPE": "node", "OSM_ID": 4684697294 }, "geometry": { "type": "Point", "coordinates": [ 78.3323683, 17.4954155 ] } },
{ "type": "Feature", "properties": { "NAME": "Kamalabad Bus Stop", "NAME_EN": null, "NAME_RU": null, "RAILWAY": null, "HIGHWAY": "bus_stop", "REF": null, "NETWORK": null, "PUBLIC_TRA": null, "OSM_TYPE": "node", "OSM_ID": 5222681697 }, "geometry": { "type": "Point", "coordinates": [ 78.6476069, 17.7084224 ] } },
{ "type": "Feature", "properties": { "NAME": "Wargal", "NAME_EN": "Wargal", "NAME_RU": null, "RAILWAY": null, "HIGHWAY": "bus_stop", "REF": null, "NETWORK": null, "PUBLIC_TRA": null, "OSM_TYPE": "node", "OSM_ID": 4553232489 }, "geometry": { "type": "Point", "coordinates": [ 78.6192027, 17.7758658 ] } },
{ "type": "Feature", "properties": { "NAME": "Kamineni to Uppal", "NAME_EN": "Kamineni to Uppal", "NAME_RU": null, "RAILWAY": null, "HIGHWAY": "bus_stop", "REF": null, "NETWORK": null, "PUBLIC_TRA": null, "OSM_TYPE": "node", "OSM_ID": 4576325296 }, "geometry": { "type": "Point", "coordinates": [ 78.555599300000011, 17.3531037 ] } },
{ "type": "Feature", "properties": { "NAME": "Kamineni bus stop", "NAME_EN": "Kamineni bus stop", "NAME_RU": null, "RAILWAY": null, "HIGHWAY": "bus_stop", "REF": null, "NETWORK": null, "PUBLIC_TRA": null, "OSM_TYPE": "node", "OSM_ID": 4576325295 }, "geometry": { "type": "Point", "coordinates": [ 78.555611, 17.3525557 ] } },
{ "type": "Feature", "properties": { "NAME": "Virat Nagar and New Maruthi Nagar Bus Stop", "NAME_EN": null, "NAME_RU": null, "RAILWAY": null, "HIGHWAY": "bus_stop", "REF": null, "NETWORK": null, "PUBLIC_TRA": null, "OSM_TYPE": "node", "OSM_ID": 4971687263 }, "geometry": { "type": "Point", "coordinates": [ 78.5217052, 17.3385466 ] } },
{ "type": "Feature", "properties": { "NAME": "Narayanaguda bus stop", "NAME_EN": null, "NAME_RU": null, "RAILWAY": null, "HIGHWAY": "bus_stop", "REF": null, "NETWORK": null, "PUBLIC_TRA": null, "OSM_TYPE": "node", "OSM_ID": 4418622010 }, "geometry": { "type": "Point", "coordinates": [ 78.489466900000011, 17.4004311 ] } },
{ "type": "Feature", "properties": { "NAME": "Lb Nagar to Uppal", "NAME_EN": "Lb Nagar to Uppal", "NAME_RU": null, "RAILWAY": null, "HIGHWAY": "bus_stop", "REF": null, "NETWORK": null, "PUBLIC_TRA": null, "OSM_TYPE": "node", "OSM_ID": 4575058291 }, "geometry": { "type": "Point", "coordinates": [ 78.5515143, 17.3473025 ] } },
{ "type": "Feature", "properties": { "NAME": null, "NAME_EN": null, "NAME_RU": null, "RAILWAY": null, "HIGHWAY": "bus_stop", "REF": null, "NETWORK": null, "PUBLIC_TRA": null, "OSM_TYPE": "node", "OSM_ID": 4683208291 }, "geometry": { "type": "Point", "coordinates": [ 78.4702895, 17.3553252 ] } },
{ "type": "Feature", "properties": { "NAME": "Gangaram", "NAME_EN": "Gangaram", "NAME_RU": null, "RAILWAY": null, "HIGHWAY": "bus_stop", "REF": null, "NETWORK": null, "PUBLIC_TRA": null, "OSM_TYPE": "node", "OSM_ID": 4672048192 }, "geometry": { "type": "Point", "coordinates": [ 78.3326521, 17.4951629 ] } },
{ "type": "Feature", "properties": { "NAME": "Rasoolpura", "NAME_EN": null, "NAME_RU": null, "RAILWAY": null, "HIGHWAY": "bus_stop", "REF": null, "NETWORK": null, "PUBLIC_TRA": null, "OSM_TYPE": "node", "OSM_ID": 4614311390 }, "geometry": { "type": "Point", "coordinates": [ 78.4748667, 17.4436129 ] } },
{ "type": "Feature", "properties": { "NAME": "NGO'S bus stop", "NAME_EN": "NGO'S bus stop", "NAME_RU": null, "RAILWAY": null, "HIGHWAY": "bus_stop", "REF": null, "NETWORK": null, "PUBLIC_TRA": null, "OSM_TYPE": "node", "OSM_ID": 4596525092 }, "geometry": { "type": "Point", "coordinates": [ 78.5664456, 17.324779 ] } },
{ "type": "Feature", "properties": { "NAME": null, "NAME_EN": null, "NAME_RU": null, "RAILWAY": null, "HIGHWAY": "bus_stop", "REF": null, "NETWORK": null, "PUBLIC_TRA": null, "OSM_TYPE": "node", "OSM_ID": 4432327892 }, "geometry": { "type": "Point", "coordinates": [ 78.4896108, 17.4059013 ] } },
{ "type": "Feature", "properties": { "NAME": "Gouraram", "NAME_EN": "Gouraram", "NAME_RU": null, "RAILWAY": null, "HIGHWAY": "bus_stop", "REF": null, "NETWORK": null, "PUBLIC_TRA": null, "OSM_TYPE": "node", "OSM_ID": 4553226593 }, "geometry": { "type": "Point", "coordinates": [ 78.659946, 17.7741297 ] } },
{ "type": "Feature", "properties": { "NAME": "Mylaram", "NAME_EN": "Mylaram", "NAME_RU": null, "RAILWAY": null, "HIGHWAY": "bus_stop", "REF": null, "NETWORK": null, "PUBLIC_TRA": null, "OSM_TYPE": "node", "OSM_ID": 4553226390 }, "geometry": { "type": "Point", "coordinates": [ 78.6285072, 17.8001493 ] } },
{ "type": "Feature", "properties": { "NAME": "Sherpally", "NAME_EN": "Sherpally", "NAME_RU": null, "RAILWAY": null, "HIGHWAY": "bus_stop", "REF": null, "NETWORK": null, "PUBLIC_TRA": null, "OSM_TYPE": "node", "OSM_ID": 4553225291 }, "geometry": { "type": "Point", "coordinates": [ 78.6185797, 17.7897744 ] } },
{ "type": "Feature", "properties": { "NAME": "Sri vidya saraswathi temple", "NAME_EN": "Sri vidya saraswathi temple", "NAME_RU": null, "RAILWAY": null, "HIGHWAY": "bus_stop", "REF": null, "NETWORK": null, "PUBLIC_TRA": null, "OSM_TYPE": "node", "OSM_ID": 4553225290 }, "geometry": { "type": "Point", "coordinates": [ 78.62042910000001, 17.7710841 ] } },
{ "type": "Feature", "properties": { "NAME": null, "NAME_EN": null, "NAME_RU": null, "RAILWAY": null, "HIGHWAY": "bus_stop", "REF": null, "NETWORK": null, "PUBLIC_TRA": null, "OSM_TYPE": "node", "OSM_ID": 4415311692 }, "geometry": { "type": "Point", "coordinates": [ 78.4896534, 17.4059854 ] } },
{ "type": "Feature", "properties": { "NAME": "ECIL X-Road", "NAME_EN": "ECIL X-Road", "NAME_RU": null, "RAILWAY": null, "HIGHWAY": "bus_stop", "REF": null, "NETWORK": null, "PUBLIC_TRA": null, "OSM_TYPE": "node", "OSM_ID": 4703842592 }, "geometry": { "type": "Point", "coordinates": [ 78.5708726, 17.4734591 ] } },
{ "type": "Feature", "properties": { "NAME": "Wargal x road", "NAME_EN": "Wargal x road", "NAME_RU": null, "RAILWAY": null, "HIGHWAY": "bus_stop", "REF": null, "NETWORK": null, "PUBLIC_TRA": null, "OSM_TYPE": "node", "OSM_ID": 4553232691 }, "geometry": { "type": "Point", "coordinates": [ 78.655417, 17.759305 ] } },
{ "type": "Feature", "properties": { "NAME": null, "NAME_EN": null, "NAME_RU": null, "RAILWAY": null, "HIGHWAY": "bus_stop", "REF": null, "NETWORK": null, "PUBLIC_TRA": null, "OSM_TYPE": "node", "OSM_ID": 4436525396 }, "geometry": { "type": "Point", "coordinates": [ 78.4940284, 17.3988371 ] } },
{ "type": "Feature", "properties": { "NAME": "Bus stop", "NAME_EN": "Bus stop", "NAME_RU": null, "RAILWAY": null, "HIGHWAY": "bus_stop", "REF": null, "NETWORK": null, "PUBLIC_TRA": null, "OSM_TYPE": "node", "OSM_ID": 4422378589 }, "geometry": { "type": "Point", "coordinates": [ 80.1316086, 17.2497864 ] } },
{ "type": "Feature", "properties": { "NAME": null, "NAME_EN": null, "NAME_RU": null, "RAILWAY": null, "HIGHWAY": "bus_stop", "REF": null, "NETWORK": null, "PUBLIC_TRA": null, "OSM_TYPE": "node", "OSM_ID": 4421612194 }, "geometry": { "type": "Point", "coordinates": [ 78.8823387, 17.8150058 ] } },
{ "type": "Feature", "properties": { "NAME": "Chiryala", "NAME_EN": null, "NAME_RU": null, "RAILWAY": null, "HIGHWAY": "bus_stop", "REF": null, "NETWORK": null, "PUBLIC_TRA": null, "OSM_TYPE": "node", "OSM_ID": 4319696708 }, "geometry": { "type": "Point", "coordinates": [ 78.6272162, 17.5150778 ] } },
{ "type": "Feature", "properties": { "NAME": "Boduppal NTR Statue", "NAME_EN": "Boduppal NTR Statue", "NAME_RU": null, "RAILWAY": null, "HIGHWAY": "bus_stop", "REF": null, "NETWORK": null, "PUBLIC_TRA": null, "OSM_TYPE": "node", "OSM_ID": 4382893291 }, "geometry": { "type": "Point", "coordinates": [ 78.5856387, 17.4121754 ] } },
{ "type": "Feature", "properties": { "NAME": "Bowenpally checkpost Bus Stop", "NAME_EN": null, "NAME_RU": null, "RAILWAY": null, "HIGHWAY": "bus_stop", "REF": null, "NETWORK": null, "PUBLIC_TRA": null, "OSM_TYPE": "node", "OSM_ID": 5199307762 }, "geometry": { "type": "Point", "coordinates": [ 78.473989, 17.4754007 ] } },
{ "type": "Feature", "properties": { "NAME": "Ayodhya x road", "NAME_EN": null, "NAME_RU": null, "RAILWAY": null, "HIGHWAY": "bus_stop", "REF": null, "NETWORK": null, "PUBLIC_TRA": null, "OSM_TYPE": "node", "OSM_ID": 4285721890 }, "geometry": { "type": "Point", "coordinates": [ 78.4733621, 17.5892934 ] } },
{ "type": "Feature", "properties": { "NAME": "noothankal", "NAME_EN": null, "NAME_RU": null, "RAILWAY": null, "HIGHWAY": "bus_stop", "REF": null, "NETWORK": null, "PUBLIC_TRA": null, "OSM_TYPE": "node", "OSM_ID": 4285703390 }, "geometry": { "type": "Point", "coordinates": [ 78.4418854, 17.6815882 ] } },
{ "type": "Feature", "properties": { "NAME": "Uppal to secundrabad bustop", "NAME_EN": "Uppal to secundrabad bustop", "NAME_RU": null, "RAILWAY": null, "HIGHWAY": "bus_stop", "REF": null, "NETWORK": null, "PUBLIC_TRA": null, "OSM_TYPE": "node", "OSM_ID": 4427688100 }, "geometry": { "type": "Point", "coordinates": [ 78.559725300000011, 17.4020163 ] } },
{ "type": "Feature", "properties": { "NAME": "indhiramma colony", "NAME_EN": null, "NAME_RU": null, "RAILWAY": null, "HIGHWAY": "bus_stop", "REF": null, "NETWORK": null, "PUBLIC_TRA": null, "OSM_TYPE": "node", "OSM_ID": 4258242989 }, "geometry": { "type": "Point", "coordinates": [ 78.444173, 17.5685992 ] } },
{ "type": "Feature", "properties": { "NAME": "pothayapally", "NAME_EN": null, "NAME_RU": null, "RAILWAY": null, "HIGHWAY": "bus_stop", "REF": null, "NETWORK": null, "PUBLIC_TRA": null, "OSM_TYPE": "node", "OSM_ID": 4258242689 }, "geometry": { "type": "Point", "coordinates": [ 78.5394093, 17.5673475 ] } },
{ "type": "Feature", "properties": { "NAME": "bowrampet", "NAME_EN": null, "NAME_RU": null, "RAILWAY": null, "HIGHWAY": "bus_stop", "REF": null, "NETWORK": null, "PUBLIC_TRA": null, "OSM_TYPE": "node", "OSM_ID": 4258216894 }, "geometry": { "type": "Point", "coordinates": [ 78.403232100000011, 17.5615155 ] } },
{ "type": "Feature", "properties": { "NAME": "dommarapochampally", "NAME_EN": null, "NAME_RU": null, "RAILWAY": null, "HIGHWAY": "bus_stop", "REF": null, "NETWORK": null, "PUBLIC_TRA": null, "OSM_TYPE": "node", "OSM_ID": 4258215993 }, "geometry": { "type": "Point", "coordinates": [ 78.418120800000011, 17.5913177 ] } },
{ "type": "Feature", "properties": { "NAME": "bahdurpally X road", "NAME_EN": null, "NAME_RU": null, "RAILWAY": null, "HIGHWAY": "bus_stop", "REF": null, "NETWORK": null, "PUBLIC_TRA": null, "OSM_TYPE": "node", "OSM_ID": 4258215992 }, "geometry": { "type": "Point", "coordinates": [ 78.4315822, 17.5603675 ] } },
{ "type": "Feature", "properties": { "NAME": "jangampet", "NAME_EN": null, "NAME_RU": null, "RAILWAY": null, "HIGHWAY": "bus_stop", "REF": null, "NETWORK": null, "PUBLIC_TRA": null, "OSM_TYPE": "node", "OSM_ID": 4258215404 }, "geometry": { "type": "Point", "coordinates": [ 78.352516200000011, 17.6282646 ] } },
{ "type": "Feature", "properties": { "NAME": "vavilala", "NAME_EN": null, "NAME_RU": null, "RAILWAY": null, "HIGHWAY": "bus_stop", "REF": null, "NETWORK": null, "PUBLIC_TRA": null, "OSM_TYPE": "node", "OSM_ID": 4258215299 }, "geometry": { "type": "Point", "coordinates": [ 78.3529944, 17.6205361 ] } },
{ "type": "Feature", "properties": { "NAME": "jinnaram", "NAME_EN": null, "NAME_RU": null, "RAILWAY": null, "HIGHWAY": "bus_stop", "REF": null, "NETWORK": null, "PUBLIC_TRA": null, "OSM_TYPE": "node", "OSM_ID": 4258214191 }, "geometry": { "type": "Point", "coordinates": [ 78.3300052, 17.6328023 ] } },
{ "type": "Feature", "properties": { "NAME": "dabilpur", "NAME_EN": null, "NAME_RU": null, "RAILWAY": null, "HIGHWAY": "bus_stop", "REF": null, "NETWORK": null, "PUBLIC_TRA": null, "OSM_TYPE": "node", "OSM_ID": 4245865389 }, "geometry": { "type": "Point", "coordinates": [ 78.4816948, 17.6806033 ] } },
{ "type": "Feature", "properties": { "NAME": "dundigal", "NAME_EN": null, "NAME_RU": null, "RAILWAY": null, "HIGHWAY": "bus_stop", "REF": null, "NETWORK": null, "PUBLIC_TRA": null, "OSM_TYPE": "node", "OSM_ID": 4258243089 }, "geometry": { "type": "Point", "coordinates": [ 78.4159776, 17.6069417 ] } },
{ "type": "Feature", "properties": { "NAME": null, "NAME_EN": null, "NAME_RU": null, "RAILWAY": null, "HIGHWAY": "bus_stop", "REF": null, "NETWORK": null, "PUBLIC_TRA": null, "OSM_TYPE": "node", "OSM_ID": 4418622014 }, "geometry": { "type": "Point", "coordinates": [ 78.4864778, 17.3995935 ] } },
{ "type": "Feature", "properties": { "NAME": null, "NAME_EN": null, "NAME_RU": null, "RAILWAY": null, "HIGHWAY": "bus_stop", "REF": null, "NETWORK": null, "PUBLIC_TRA": null, "OSM_TYPE": "node", "OSM_ID": 4416374791 }, "geometry": { "type": "Point", "coordinates": [ 78.4888654, 17.4014511 ] } },
{ "type": "Feature", "properties": { "NAME": "Lb Nagar", "NAME_EN": "Lb Nagar", "NAME_RU": null, "RAILWAY": null, "HIGHWAY": "bus_stop", "REF": null, "NETWORK": null, "PUBLIC_TRA": null, "OSM_TYPE": "node", "OSM_ID": 4575180816 }, "geometry": { "type": "Point", "coordinates": [ 78.5500448, 17.3470192 ] } },
{ "type": "Feature", "properties": { "NAME": "Paradise Bus Stop", "NAME_EN": null, "NAME_RU": null, "RAILWAY": null, "HIGHWAY": "bus_stop", "REF": null, "NETWORK": null, "PUBLIC_TRA": null, "OSM_TYPE": "node", "OSM_ID": 4196826124 }, "geometry": { "type": "Point", "coordinates": [ 78.4874255, 17.4427338 ] } },
{ "type": "Feature", "properties": { "NAME": "Yadhagiripalli X Road", "NAME_EN": null, "NAME_RU": null, "RAILWAY": null, "HIGHWAY": "bus_stop", "REF": null, "NETWORK": null, "PUBLIC_TRA": null, "OSM_TYPE": "node", "OSM_ID": 4317757090 }, "geometry": { "type": "Point", "coordinates": [ 78.6309349, 17.5380295 ] } },
{ "type": "Feature", "properties": { "NAME": "railaapoor", "NAME_EN": null, "NAME_RU": null, "RAILWAY": null, "HIGHWAY": "bus_stop", "REF": null, "NETWORK": null, "PUBLIC_TRA": null, "OSM_TYPE": "node", "OSM_ID": 4285718089 }, "geometry": { "type": "Point", "coordinates": [ 78.4442557, 17.63119 ] } },
{ "type": "Feature", "properties": { "NAME": "kandlakoya", "NAME_EN": null, "NAME_RU": null, "RAILWAY": null, "HIGHWAY": "bus_stop", "REF": null, "NETWORK": null, "PUBLIC_TRA": null, "OSM_TYPE": "node", "OSM_ID": 4245865189 }, "geometry": { "type": "Point", "coordinates": [ 78.4928378, 17.5916202 ] } },
{ "type": "Feature", "properties": { "NAME": null, "NAME_EN": null, "NAME_RU": null, "RAILWAY": null, "HIGHWAY": "bus_stop", "REF": null, "NETWORK": null, "PUBLIC_TRA": null, "OSM_TYPE": "node", "OSM_ID": 4187312089 }, "geometry": { "type": "Point", "coordinates": [ 78.4845915, 17.4215893 ] } },
{ "type": "Feature", "properties": { "NAME": "Mulugu bus stop", "NAME_EN": "Mulugu bus stop", "NAME_RU": null, "RAILWAY": null, "HIGHWAY": "bus_stop", "REF": null, "NETWORK": null, "PUBLIC_TRA": null, "OSM_TYPE": "node", "OSM_ID": 4553226391 }, "geometry": { "type": "Point", "coordinates": [ 78.6375954, 17.7362146 ] } },
{ "type": "Feature", "properties": { "NAME": "gundlapochampally", "NAME_EN": null, "NAME_RU": null, "RAILWAY": null, "HIGHWAY": "bus_stop", "REF": null, "NETWORK": null, "PUBLIC_TRA": null, "OSM_TYPE": "node", "OSM_ID": 4245864989 }, "geometry": { "type": "Point", "coordinates": [ 78.480271, 17.568913 ] } },
{ "type": "Feature", "properties": { "NAME": "Chiryala", "NAME_EN": null, "NAME_RU": null, "RAILWAY": null, "HIGHWAY": "bus_stop", "REF": null, "NETWORK": null, "PUBLIC_TRA": null, "OSM_TYPE": "node", "OSM_ID": 4319695949 }, "geometry": { "type": "Point", "coordinates": [ 78.6279076, 17.5199382 ] } },
{ "type": "Feature", "properties": { "NAME": "maisammaguda", "NAME_EN": null, "NAME_RU": null, "RAILWAY": null, "HIGHWAY": "bus_stop", "REF": null, "NETWORK": null, "PUBLIC_TRA": null, "OSM_TYPE": "node", "OSM_ID": 4244032590 }, "geometry": { "type": "Point", "coordinates": [ 78.4538019, 17.5622944 ] } },
{ "type": "Feature", "properties": { "NAME": "bus stop", "NAME_EN": null, "NAME_RU": null, "RAILWAY": null, "HIGHWAY": null, "REF": null, "NETWORK": null, "PUBLIC_TRA": "platform", "OSM_TYPE": "node", "OSM_ID": 3970065519 }, "geometry": { "type": "Point", "coordinates": [ 78.4311053, 17.3940987 ] } },
{ "type": "Feature", "properties": { "NAME": "రాందాస్ గుడ", "NAME_EN": null, "NAME_RU": null, "RAILWAY": null, "HIGHWAY": "bus_stop", "REF": null, "NETWORK": null, "PUBLIC_TRA": null, "OSM_TYPE": "node", "OSM_ID": 5365237421 }, "geometry": { "type": "Point", "coordinates": [ 78.140327, 17.874974 ] } },
{ "type": "Feature", "properties": { "NAME": null, "NAME_EN": null, "NAME_RU": null, "RAILWAY": null, "HIGHWAY": "bus_stop", "REF": null, "NETWORK": null, "PUBLIC_TRA": null, "OSM_TYPE": "node", "OSM_ID": 4187300499 }, "geometry": { "type": "Point", "coordinates": [ 78.4759411, 17.3735421 ] } },
{ "type": "Feature", "properties": { "NAME": null, "NAME_EN": null, "NAME_RU": null, "RAILWAY": null, "HIGHWAY": "bus_stop", "REF": null, "NETWORK": null, "PUBLIC_TRA": null, "OSM_TYPE": "node", "OSM_ID": 4187284601 }, "geometry": { "type": "Point", "coordinates": [ 78.4881289, 17.4311888 ] } },
{ "type": "Feature", "properties": { "NAME": "bahdurpally village", "NAME_EN": null, "NAME_RU": null, "RAILWAY": null, "HIGHWAY": "bus_stop", "REF": null, "NETWORK": null, "PUBLIC_TRA": null, "OSM_TYPE": "node", "OSM_ID": 4258242690 }, "geometry": { "type": "Point", "coordinates": [ 78.438233, 17.5598956 ] } },
{ "type": "Feature", "properties": { "NAME": "Dammapeta", "NAME_EN": null, "NAME_RU": null, "RAILWAY": null, "HIGHWAY": "bus_stop", "REF": null, "NETWORK": null, "PUBLIC_TRA": null, "OSM_TYPE": "node", "OSM_ID": 4471076791 }, "geometry": { "type": "Point", "coordinates": [ 81.0078484, 17.2357193 ] } },
{ "type": "Feature", "properties": { "NAME": "Panjagutta", "NAME_EN": null, "NAME_RU": null, "RAILWAY": null, "HIGHWAY": "bus_stop", "REF": null, "NETWORK": null, "PUBLIC_TRA": null, "OSM_TYPE": "node", "OSM_ID": 4190967189 }, "geometry": { "type": "Point", "coordinates": [ 78.4527079, 17.4269282 ] } },
{ "type": "Feature", "properties": { "NAME": null, "NAME_EN": null, "NAME_RU": null, "RAILWAY": null, "HIGHWAY": "bus_stop", "REF": null, "NETWORK": null, "PUBLIC_TRA": null, "OSM_TYPE": "node", "OSM_ID": 4190967089 }, "geometry": { "type": "Point", "coordinates": [ 78.4558023, 17.4339129 ] } },
{ "type": "Feature", "properties": { "NAME": null, "NAME_EN": null, "NAME_RU": null, "RAILWAY": null, "HIGHWAY": "bus_stop", "REF": null, "NETWORK": null, "PUBLIC_TRA": null, "OSM_TYPE": "node", "OSM_ID": 4187313089 }, "geometry": { "type": "Point", "coordinates": [ 78.478087, 17.371411 ] } },
{ "type": "Feature", "properties": { "NAME": "dulapally", "NAME_EN": null, "NAME_RU": null, "RAILWAY": null, "HIGHWAY": "bus_stop", "REF": null, "NETWORK": null, "PUBLIC_TRA": null, "OSM_TYPE": "node", "OSM_ID": 3858679570 }, "geometry": { "type": "Point", "coordinates": [ 78.466846600000011, 17.5467126 ] } },
{ "type": "Feature", "properties": { "NAME": "Prakash Nagar", "NAME_EN": null, "NAME_RU": null, "RAILWAY": null, "HIGHWAY": "bus_stop", "REF": null, "NETWORK": null, "PUBLIC_TRA": null, "OSM_TYPE": "node", "OSM_ID": 3847452684 }, "geometry": { "type": "Point", "coordinates": [ 78.471385500000011, 17.4440393 ] } },
{ "type": "Feature", "properties": { "NAME": "Prakash Nagar", "NAME_EN": null, "NAME_RU": null, "RAILWAY": null, "HIGHWAY": "bus_stop", "REF": null, "NETWORK": null, "PUBLIC_TRA": null, "OSM_TYPE": "node", "OSM_ID": 3847452683 }, "geometry": { "type": "Point", "coordinates": [ 78.4722788, 17.4443086 ] } },
{ "type": "Feature", "properties": { "NAME": null, "NAME_EN": null, "NAME_RU": null, "RAILWAY": null, "HIGHWAY": "bus_stop", "REF": null, "NETWORK": null, "PUBLIC_TRA": null, "OSM_TYPE": "node", "OSM_ID": 4187283995 }, "geometry": { "type": "Point", "coordinates": [ 78.476023500000011, 17.4100969 ] } },
{ "type": "Feature", "properties": { "NAME": null, "NAME_EN": null, "NAME_RU": null, "RAILWAY": null, "HIGHWAY": "bus_stop", "REF": null, "NETWORK": null, "PUBLIC_TRA": null, "OSM_TYPE": "node", "OSM_ID": 4187283994 }, "geometry": { "type": "Point", "coordinates": [ 78.4731332, 17.4082906 ] } },
{ "type": "Feature", "properties": { "NAME": "Apprell Export Park", "NAME_EN": null, "NAME_RU": null, "RAILWAY": null, "HIGHWAY": "bus_stop", "REF": null, "NETWORK": null, "PUBLIC_TRA": null, "OSM_TYPE": "node", "OSM_ID": 4245803492 }, "geometry": { "type": "Point", "coordinates": [ 78.466594, 17.5637645 ] } },
{ "type": "Feature", "properties": { "NAME": "kompally", "NAME_EN": null, "NAME_RU": null, "RAILWAY": null, "HIGHWAY": "bus_stop", "REF": null, "NETWORK": null, "PUBLIC_TRA": null, "OSM_TYPE": "node", "OSM_ID": 4245803493 }, "geometry": { "type": "Point", "coordinates": [ 78.491842, 17.5447029 ] } },
{ "type": "Feature", "properties": { "NAME": "Bundlaguda", "NAME_EN": null, "NAME_RU": null, "RAILWAY": null, "HIGHWAY": "bus_stop", "REF": null, "NETWORK": null, "PUBLIC_TRA": null, "OSM_TYPE": "node", "OSM_ID": 4317824091 }, "geometry": { "type": "Point", "coordinates": [ 78.622335, 17.5012729 ] } },
{ "type": "Feature", "properties": { "NAME": "Bhoodevi nagar junction bus stop", "NAME_EN": null, "NAME_RU": null, "RAILWAY": null, "HIGHWAY": "bus_stop", "REF": null, "NETWORK": null, "PUBLIC_TRA": null, "OSM_TYPE": "node", "OSM_ID": 3530722779 }, "geometry": { "type": "Point", "coordinates": [ 78.504982500000011, 17.4919718 ] } },
{ "type": "Feature", "properties": { "NAME": "Greenspace Prime", "NAME_EN": null, "NAME_RU": null, "RAILWAY": null, "HIGHWAY": "bus_stop", "REF": null, "NETWORK": null, "PUBLIC_TRA": null, "OSM_TYPE": "node", "OSM_ID": 4158652390 }, "geometry": { "type": "Point", "coordinates": [ 78.3657916, 17.4026879 ] } },
{ "type": "Feature", "properties": { "NAME": "Subash Nagar bus stop", "NAME_EN": null, "NAME_RU": null, "RAILWAY": null, "HIGHWAY": "bus_stop", "REF": null, "NETWORK": null, "PUBLIC_TRA": null, "OSM_TYPE": "node", "OSM_ID": 3530664317 }, "geometry": { "type": "Point", "coordinates": [ 78.502751, 17.485212 ] } },
{ "type": "Feature", "properties": { "NAME": "edbid  bus stop", "NAME_EN": null, "NAME_RU": null, "RAILWAY": null, "HIGHWAY": "bus_stop", "REF": null, "NETWORK": null, "PUBLIC_TRA": null, "OSM_TYPE": "node", "OSM_ID": 3535351774 }, "geometry": { "type": "Point", "coordinates": [ 77.9987972, 19.0594853 ] } },
{ "type": "Feature", "properties": { "NAME": "Rajiv Nagar, Sai Baba temple bus stop", "NAME_EN": null, "NAME_RU": null, "RAILWAY": null, "HIGHWAY": "bus_stop", "REF": null, "NETWORK": null, "PUBLIC_TRA": null, "OSM_TYPE": "node", "OSM_ID": 3530698152 }, "geometry": { "type": "Point", "coordinates": [ 78.5046124, 17.489498 ] } },
{ "type": "Feature", "properties": { "NAME": null, "NAME_EN": null, "NAME_RU": null, "RAILWAY": null, "HIGHWAY": "bus_stop", "REF": null, "NETWORK": null, "PUBLIC_TRA": null, "OSM_TYPE": "node", "OSM_ID": 3668037748 }, "geometry": { "type": "Point", "coordinates": [ 78.4116236, 17.282782 ] } },
{ "type": "Feature", "properties": { "NAME": "Nizampet X road bus stop", "NAME_EN": null, "NAME_RU": null, "RAILWAY": null, "HIGHWAY": "bus_stop", "REF": null, "NETWORK": null, "PUBLIC_TRA": null, "OSM_TYPE": "node", "OSM_ID": 4283612879 }, "geometry": { "type": "Point", "coordinates": [ 78.3909239, 17.4985768 ] } },
{ "type": "Feature", "properties": { "NAME": "karjapalli busstop", "NAME_EN": null, "NAME_RU": null, "RAILWAY": null, "HIGHWAY": "bus_stop", "REF": null, "NETWORK": null, "PUBLIC_TRA": null, "OSM_TYPE": "node", "OSM_ID": 3537626279 }, "geometry": { "type": "Point", "coordinates": [ 79.638040600000011, 19.5297687 ] } },
{ "type": "Feature", "properties": { "NAME": null, "NAME_EN": null, "NAME_RU": null, "RAILWAY": null, "HIGHWAY": "bus_stop", "REF": null, "NETWORK": null, "PUBLIC_TRA": null, "OSM_TYPE": "node", "OSM_ID": 3535377515 }, "geometry": { "type": "Point", "coordinates": [ 79.0940456, 17.2857123 ] } },
{ "type": "Feature", "properties": { "NAME": null, "NAME_EN": null, "NAME_RU": null, "RAILWAY": null, "HIGHWAY": "bus_stop", "REF": null, "NETWORK": null, "PUBLIC_TRA": null, "OSM_TYPE": "node", "OSM_ID": 3535215996 }, "geometry": { "type": "Point", "coordinates": [ 78.841250100000011, 17.2623558 ] } },
{ "type": "Feature", "properties": { "NAME": "Lingampally Railway Station", "NAME_EN": null, "NAME_RU": null, "RAILWAY": null, "HIGHWAY": "bus_stop", "REF": null, "NETWORK": null, "PUBLIC_TRA": "platform", "OSM_TYPE": "node", "OSM_ID": 3704169955 }, "geometry": { "type": "Point", "coordinates": [ 78.320535400000011, 17.4830399 ] } },
{ "type": "Feature", "properties": { "NAME": "bussstop", "NAME_EN": null, "NAME_RU": null, "RAILWAY": null, "HIGHWAY": "bus_stop", "REF": null, "NETWORK": null, "PUBLIC_TRA": null, "OSM_TYPE": "node", "OSM_ID": 3534822679 }, "geometry": { "type": "Point", "coordinates": [ 78.91326620000001, 16.6943578 ] } },
{ "type": "Feature", "properties": { "NAME": null, "NAME_EN": null, "NAME_RU": null, "RAILWAY": null, "HIGHWAY": "bus_stop", "REF": null, "NETWORK": null, "PUBLIC_TRA": null, "OSM_TYPE": "node", "OSM_ID": 3393652341 }, "geometry": { "type": "Point", "coordinates": [ 78.3413112, 17.4279255 ] } },
{ "type": "Feature", "properties": { "NAME": "Lakdawala Bus Stop", "NAME_EN": null, "NAME_RU": null, "RAILWAY": null, "HIGHWAY": "bus_stop", "REF": null, "NETWORK": null, "PUBLIC_TRA": null, "OSM_TYPE": "node", "OSM_ID": 3530744673 }, "geometry": { "type": "Point", "coordinates": [ 78.5202577, 17.512541 ] } },
{ "type": "Feature", "properties": { "NAME": "Lingampally Railway Station", "NAME_EN": null, "NAME_RU": null, "RAILWAY": null, "HIGHWAY": "bus_stop", "REF": null, "NETWORK": null, "PUBLIC_TRA": null, "OSM_TYPE": "node", "OSM_ID": 3704169954 }, "geometry": { "type": "Point", "coordinates": [ 78.3203266, 17.4829088 ] } },
{ "type": "Feature", "properties": { "NAME": "Lingampally Railway Station", "NAME_EN": null, "NAME_RU": null, "RAILWAY": null, "HIGHWAY": "bus_stop", "REF": null, "NETWORK": null, "PUBLIC_TRA": null, "OSM_TYPE": "node", "OSM_ID": 3704169953 }, "geometry": { "type": "Point", "coordinates": [ 78.3173306, 17.482883 ] } },
{ "type": "Feature", "properties": { "NAME": "bits pilani", "NAME_EN": null, "NAME_RU": null, "RAILWAY": null, "HIGHWAY": "bus_stop", "REF": null, "NETWORK": null, "PUBLIC_TRA": null, "OSM_TYPE": "node", "OSM_ID": 4293343216 }, "geometry": { "type": "Point", "coordinates": [ 78.572513, 17.5472339 ] } },
{ "type": "Feature", "properties": { "NAME": "manakondur  bus stop", "NAME_EN": null, "NAME_RU": null, "RAILWAY": null, "HIGHWAY": "bus_stop", "REF": null, "NETWORK": null, "PUBLIC_TRA": null, "OSM_TYPE": "node", "OSM_ID": 3538214833 }, "geometry": { "type": "Point", "coordinates": [ 79.1876789, 18.4022075 ] } },
{ "type": "Feature", "properties": { "NAME": "bus stop", "NAME_EN": null, "NAME_RU": null, "RAILWAY": null, "HIGHWAY": "bus_stop", "REF": null, "NETWORK": null, "PUBLIC_TRA": null, "OSM_TYPE": "node", "OSM_ID": 3384148486 }, "geometry": { "type": "Point", "coordinates": [ 78.4157649, 17.427057 ] } },
{ "type": "Feature", "properties": { "NAME": null, "NAME_EN": null, "NAME_RU": null, "RAILWAY": null, "HIGHWAY": "bus_stop", "REF": null, "NETWORK": null, "PUBLIC_TRA": null, "OSM_TYPE": "node", "OSM_ID": 3509615301 }, "geometry": { "type": "Point", "coordinates": [ 78.434545, 17.3943895 ] } },
{ "type": "Feature", "properties": { "NAME": "as rao nagar", "NAME_EN": null, "NAME_RU": null, "RAILWAY": null, "HIGHWAY": "bus_stop", "REF": null, "NETWORK": null, "PUBLIC_TRA": null, "OSM_TYPE": "node", "OSM_ID": 3392152369 }, "geometry": { "type": "Point", "coordinates": [ 78.5582876, 17.4795171 ] } },
{ "type": "Feature", "properties": { "NAME": null, "NAME_EN": null, "NAME_RU": null, "RAILWAY": null, "HIGHWAY": "bus_stop", "REF": null, "NETWORK": null, "PUBLIC_TRA": null, "OSM_TYPE": "node", "OSM_ID": 3530728498 }, "geometry": { "type": "Point", "coordinates": [ 78.4996168, 17.4831554 ] } },
{ "type": "Feature", "properties": { "NAME": "Bhoodevi Nagar Bus Stop", "NAME_EN": null, "NAME_RU": null, "RAILWAY": null, "HIGHWAY": "bus_stop", "REF": null, "NETWORK": null, "PUBLIC_TRA": null, "OSM_TYPE": "node", "OSM_ID": 3530710154 }, "geometry": { "type": "Point", "coordinates": [ 78.5030996, 17.4915113 ] } },
{ "type": "Feature", "properties": { "NAME": null, "NAME_EN": null, "NAME_RU": null, "RAILWAY": null, "HIGHWAY": "bus_stop", "REF": null, "NETWORK": null, "PUBLIC_TRA": null, "OSM_TYPE": "node", "OSM_ID": 3388973351 }, "geometry": { "type": "Point", "coordinates": [ 77.9524384, 17.7746735 ] } },
{ "type": "Feature", "properties": { "NAME": "Liberty", "NAME_EN": null, "NAME_RU": null, "RAILWAY": null, "HIGHWAY": "bus_stop", "REF": null, "NETWORK": null, "PUBLIC_TRA": null, "OSM_TYPE": "node", "OSM_ID": 3170114037 }, "geometry": { "type": "Point", "coordinates": [ 78.4770552, 17.4055586 ] } },
{ "type": "Feature", "properties": { "NAME": null, "NAME_EN": null, "NAME_RU": null, "RAILWAY": null, "HIGHWAY": "bus_stop", "REF": null, "NETWORK": null, "PUBLIC_TRA": null, "OSM_TYPE": "node", "OSM_ID": 3384147270 }, "geometry": { "type": "Point", "coordinates": [ 78.4153658, 17.4262292 ] } },
{ "type": "Feature", "properties": { "NAME": "Savati Bus Stop, Gorentla", "NAME_EN": null, "NAME_RU": null, "RAILWAY": null, "HIGHWAY": "bus_stop", "REF": null, "NETWORK": null, "PUBLIC_TRA": null, "OSM_TYPE": "node", "OSM_ID": 3384000236 }, "geometry": { "type": "Point", "coordinates": [ 79.6650673, 17.3906091 ] } },
{ "type": "Feature", "properties": { "NAME": "hitex bus stop", "NAME_EN": null, "NAME_RU": null, "RAILWAY": null, "HIGHWAY": "bus_stop", "REF": null, "NETWORK": null, "PUBLIC_TRA": null, "OSM_TYPE": "node", "OSM_ID": 3384133030 }, "geometry": { "type": "Point", "coordinates": [ 78.3774684, 17.4560989 ] } },
{ "type": "Feature", "properties": { "NAME": null, "NAME_EN": null, "NAME_RU": null, "RAILWAY": null, "HIGHWAY": "bus_stop", "REF": null, "NETWORK": null, "PUBLIC_TRA": null, "OSM_TYPE": "node", "OSM_ID": 3509637334 }, "geometry": { "type": "Point", "coordinates": [ 78.5084751, 17.5030312 ] } },
{ "type": "Feature", "properties": { "NAME": "JNTU bus stop", "NAME_EN": null, "NAME_RU": null, "RAILWAY": null, "HIGHWAY": "bus_stop", "REF": null, "NETWORK": null, "PUBLIC_TRA": null, "OSM_TYPE": "node", "OSM_ID": 3166191377 }, "geometry": { "type": "Point", "coordinates": [ 78.395414100000011, 17.4963638 ] } },
{ "type": "Feature", "properties": { "NAME": "Alwal Bus stop", "NAME_EN": null, "NAME_RU": null, "RAILWAY": null, "HIGHWAY": "bus_stop", "REF": null, "NETWORK": null, "PUBLIC_TRA": null, "OSM_TYPE": "node", "OSM_ID": 3530746702 }, "geometry": { "type": "Point", "coordinates": [ 78.5141154, 17.5015161 ] } },
{ "type": "Feature", "properties": { "NAME": "Yousufguda checkpost", "NAME_EN": "Yousufguda Checkpost Bus Stop", "NAME_RU": null, "RAILWAY": null, "HIGHWAY": "bus_stop", "REF": null, "NETWORK": null, "PUBLIC_TRA": null, "OSM_TYPE": "node", "OSM_ID": 3155693784 }, "geometry": { "type": "Point", "coordinates": [ 78.427961, 17.4365604 ] } },
{ "type": "Feature", "properties": { "NAME": "kukatpally bus stop", "NAME_EN": null, "NAME_RU": null, "RAILWAY": null, "HIGHWAY": "bus_stop", "REF": null, "NETWORK": null, "PUBLIC_TRA": null, "OSM_TYPE": "node", "OSM_ID": 3388917228 }, "geometry": { "type": "Point", "coordinates": [ 78.4131832, 17.4835823 ] } },
{ "type": "Feature", "properties": { "NAME": null, "NAME_EN": null, "NAME_RU": null, "RAILWAY": null, "HIGHWAY": "bus_stop", "REF": null, "NETWORK": null, "PUBLIC_TRA": null, "OSM_TYPE": "node", "OSM_ID": 3069694041 }, "geometry": { "type": "Point", "coordinates": [ 78.4017154, 17.3219774 ] } },
{ "type": "Feature", "properties": { "NAME": "Liberty", "NAME_EN": null, "NAME_RU": null, "RAILWAY": null, "HIGHWAY": "bus_stop", "REF": null, "NETWORK": null, "PUBLIC_TRA": null, "OSM_TYPE": "node", "OSM_ID": 3170114036 }, "geometry": { "type": "Point", "coordinates": [ 78.4762585, 17.4071019 ] } },
{ "type": "Feature", "properties": { "NAME": "kompally", "NAME_EN": null, "NAME_RU": null, "RAILWAY": null, "HIGHWAY": "bus_stop", "REF": null, "NETWORK": null, "PUBLIC_TRA": null, "OSM_TYPE": "node", "OSM_ID": 4245864990 }, "geometry": { "type": "Point", "coordinates": [ 78.4909369, 17.5401462 ] } },
{ "type": "Feature", "properties": { "NAME": "Warangal", "NAME_EN": null, "NAME_RU": null, "RAILWAY": null, "HIGHWAY": "bus_stop", "REF": null, "NETWORK": null, "PUBLIC_TRA": null, "OSM_TYPE": "node", "OSM_ID": 2912526828 }, "geometry": { "type": "Point", "coordinates": [ 78.5594709, 17.4025065 ] } },
{ "type": "Feature", "properties": { "NAME": "Secretriat Bus Stop", "NAME_EN": null, "NAME_RU": null, "RAILWAY": null, "HIGHWAY": "bus_stop", "REF": null, "NETWORK": null, "PUBLIC_TRA": null, "OSM_TYPE": "node", "OSM_ID": 3170093993 }, "geometry": { "type": "Point", "coordinates": [ 78.4720874, 17.4083494 ] } },
{ "type": "Feature", "properties": { "NAME": "venkatampeta", "NAME_EN": null, "NAME_RU": null, "RAILWAY": null, "HIGHWAY": "bus_stop", "REF": null, "NETWORK": null, "PUBLIC_TRA": null, "OSM_TYPE": "node", "OSM_ID": 3534818911 }, "geometry": { "type": "Point", "coordinates": [ 78.9132865, 16.6943571 ] } },
{ "type": "Feature", "properties": { "NAME": "Anand Theatre", "NAME_EN": null, "NAME_RU": null, "RAILWAY": null, "HIGHWAY": "bus_stop", "REF": null, "NETWORK": null, "PUBLIC_TRA": null, "OSM_TYPE": "node", "OSM_ID": 2794877040 }, "geometry": { "type": "Point", "coordinates": [ 78.4821046, 17.4432667 ] } },
{ "type": "Feature", "properties": { "NAME": "Yousufguda checkpost", "NAME_EN": null, "NAME_RU": null, "RAILWAY": null, "HIGHWAY": "bus_stop", "REF": null, "NETWORK": null, "PUBLIC_TRA": null, "OSM_TYPE": "node", "OSM_ID": 3155693783 }, "geometry": { "type": "Point", "coordinates": [ 78.4282035, 17.4365545 ] } },
{ "type": "Feature", "properties": { "NAME": "Yousufguda Basti stop", "NAME_EN": "Yousufguda Basti Bus Stop", "NAME_RU": null, "RAILWAY": null, "HIGHWAY": "bus_stop", "REF": null, "NETWORK": null, "PUBLIC_TRA": null, "OSM_TYPE": "node", "OSM_ID": 3155691532 }, "geometry": { "type": "Point", "coordinates": [ 78.4321998, 17.4367359 ] } },
{ "type": "Feature", "properties": { "NAME": null, "NAME_EN": null, "NAME_RU": null, "RAILWAY": null, "HIGHWAY": "bus_stop", "REF": null, "NETWORK": null, "PUBLIC_TRA": null, "OSM_TYPE": "node", "OSM_ID": 2915493550 }, "geometry": { "type": "Point", "coordinates": [ 78.8585287, 17.5038805 ] } },
{ "type": "Feature", "properties": { "NAME": null, "NAME_EN": null, "NAME_RU": null, "RAILWAY": null, "HIGHWAY": "bus_stop", "REF": null, "NETWORK": null, "PUBLIC_TRA": null, "OSM_TYPE": "node", "OSM_ID": 2915482110 }, "geometry": { "type": "Point", "coordinates": [ 78.8277994, 17.4887228 ] } },
{ "type": "Feature", "properties": { "NAME": "citizens colony bus stop", "NAME_EN": null, "NAME_RU": null, "RAILWAY": null, "HIGHWAY": "bus_stop", "REF": null, "NETWORK": null, "PUBLIC_TRA": null, "OSM_TYPE": "node", "OSM_ID": 3509653368 }, "geometry": { "type": "Point", "coordinates": [ 78.4937689, 17.5132576 ] } },
{ "type": "Feature", "properties": { "NAME": "Sai Baba Temple, Gudimalkapur", "NAME_EN": null, "NAME_RU": null, "RAILWAY": null, "HIGHWAY": "bus_stop", "REF": null, "NETWORK": null, "PUBLIC_TRA": null, "OSM_TYPE": "node", "OSM_ID": 2817389631 }, "geometry": { "type": "Point", "coordinates": [ 78.4398828, 17.3865919 ] } },
{ "type": "Feature", "properties": { "NAME": null, "NAME_EN": null, "NAME_RU": null, "RAILWAY": null, "HIGHWAY": "bus_stop", "REF": null, "NETWORK": null, "PUBLIC_TRA": null, "OSM_TYPE": "node", "OSM_ID": 2798876583 }, "geometry": { "type": "Point", "coordinates": [ 78.537241200000011, 17.4822594 ] } },
{ "type": "Feature", "properties": { "NAME": "NGOS Colony", "NAME_EN": null, "NAME_RU": null, "RAILWAY": null, "HIGHWAY": "bus_stop", "REF": null, "NETWORK": null, "PUBLIC_TRA": null, "OSM_TYPE": "node", "OSM_ID": 2713938449 }, "geometry": { "type": "Point", "coordinates": [ 79.5360303, 18.0051403 ] } },
{ "type": "Feature", "properties": { "NAME": "M.I.G bus stop", "NAME_EN": null, "NAME_RU": null, "RAILWAY": null, "HIGHWAY": "bus_stop", "REF": null, "NETWORK": null, "PUBLIC_TRA": null, "OSM_TYPE": "node", "OSM_ID": 3170242754 }, "geometry": { "type": "Point", "coordinates": [ 78.3913986, 17.4874175 ] } },
{ "type": "Feature", "properties": { "NAME": "Yousufguda basti", "NAME_EN": null, "NAME_RU": null, "RAILWAY": null, "HIGHWAY": "bus_stop", "REF": null, "NETWORK": null, "PUBLIC_TRA": null, "OSM_TYPE": "node", "OSM_ID": 3155691531 }, "geometry": { "type": "Point", "coordinates": [ 78.4339221, 17.4365057 ] } },
{ "type": "Feature", "properties": { "NAME": null, "NAME_EN": null, "NAME_RU": null, "RAILWAY": null, "HIGHWAY": "bus_stop", "REF": null, "NETWORK": null, "PUBLIC_TRA": null, "OSM_TYPE": "node", "OSM_ID": 2915493551 }, "geometry": { "type": "Point", "coordinates": [ 78.8583651, 17.5036068 ] } },
{ "type": "Feature", "properties": { "NAME": "Gandhi Nagar", "NAME_EN": null, "NAME_RU": null, "RAILWAY": null, "HIGHWAY": "bus_stop", "REF": null, "NETWORK": null, "PUBLIC_TRA": null, "OSM_TYPE": "node", "OSM_ID": 2715279111 }, "geometry": { "type": "Point", "coordinates": [ 78.4885557, 17.4126307 ] } },
{ "type": "Feature", "properties": { "NAME": "Anjaya Nagar", "NAME_EN": null, "NAME_RU": null, "RAILWAY": null, "HIGHWAY": "bus_stop", "REF": null, "NETWORK": null, "PUBLIC_TRA": null, "OSM_TYPE": "node", "OSM_ID": 2714172218 }, "geometry": { "type": "Point", "coordinates": [ 78.3637319, 17.4521229 ] } },
{ "type": "Feature", "properties": { "NAME": "100 Feet Road", "NAME_EN": null, "NAME_RU": null, "RAILWAY": null, "HIGHWAY": "bus_stop", "REF": null, "NETWORK": null, "PUBLIC_TRA": null, "OSM_TYPE": "node", "OSM_ID": 2713969988 }, "geometry": { "type": "Point", "coordinates": [ 79.5318986, 18.005765 ] } },
{ "type": "Feature", "properties": { "NAME": "amber pet", "NAME_EN": null, "NAME_RU": null, "RAILWAY": null, "HIGHWAY": "bus_stop", "REF": null, "NETWORK": null, "PUBLIC_TRA": null, "OSM_TYPE": "node", "OSM_ID": 2712702745 }, "geometry": { "type": "Point", "coordinates": [ 78.5162173, 17.391604 ] } },
{ "type": "Feature", "properties": { "NAME": null, "NAME_EN": null, "NAME_RU": null, "RAILWAY": null, "HIGHWAY": "bus_stop", "REF": null, "NETWORK": null, "PUBLIC_TRA": null, "OSM_TYPE": "node", "OSM_ID": 2798876581 }, "geometry": { "type": "Point", "coordinates": [ 78.5372675, 17.482051 ] } },
{ "type": "Feature", "properties": { "NAME": "Gopala Swamy temple bus stop", "NAME_EN": null, "NAME_RU": null, "RAILWAY": null, "HIGHWAY": "bus_stop", "REF": null, "NETWORK": null, "PUBLIC_TRA": null, "OSM_TYPE": "node", "OSM_ID": 3390939995 }, "geometry": { "type": "Point", "coordinates": [ 79.5968321, 17.9895827 ] } },
{ "type": "Feature", "properties": { "NAME": null, "NAME_EN": null, "NAME_RU": null, "RAILWAY": null, "HIGHWAY": "bus_stop", "REF": null, "NETWORK": null, "PUBLIC_TRA": null, "OSM_TYPE": "node", "OSM_ID": 2779342510 }, "geometry": { "type": "Point", "coordinates": [ 80.8026032, 17.9128173 ] } },
{ "type": "Feature", "properties": { "NAME": "Arts College City", "NAME_EN": null, "NAME_RU": null, "RAILWAY": null, "HIGHWAY": "bus_stop", "REF": null, "NETWORK": null, "PUBLIC_TRA": null, "OSM_TYPE": "node", "OSM_ID": 2713912315 }, "geometry": { "type": "Point", "coordinates": [ 79.545684900000012, 17.9946528 ] } },
{ "type": "Feature", "properties": { "NAME": "Shobana Bus Stand", "NAME_EN": null, "NAME_RU": null, "RAILWAY": null, "HIGHWAY": "bus_stop", "REF": null, "NETWORK": null, "PUBLIC_TRA": null, "OSM_TYPE": "node", "OSM_ID": 3010198836 }, "geometry": { "type": "Point", "coordinates": [ 78.4525943, 17.4636333 ] } },
{ "type": "Feature", "properties": { "NAME": "IG Statue Bus stop", "NAME_EN": null, "NAME_RU": null, "RAILWAY": null, "HIGHWAY": "bus_stop", "REF": null, "NETWORK": null, "PUBLIC_TRA": null, "OSM_TYPE": "node", "OSM_ID": 3509655788 }, "geometry": { "type": "Point", "coordinates": [ 78.5036851, 17.5086672 ] } },
{ "type": "Feature", "properties": { "NAME": "Subedari City", "NAME_EN": null, "NAME_RU": null, "RAILWAY": null, "HIGHWAY": "bus_stop", "REF": null, "NETWORK": null, "PUBLIC_TRA": null, "OSM_TYPE": "node", "OSM_ID": 2713881934 }, "geometry": { "type": "Point", "coordinates": [ 79.5423058, 17.9938977 ] } },
{ "type": "Feature", "properties": { "NAME": "Kazipet Railway Station Triangular Platform", "NAME_EN": null, "NAME_RU": null, "RAILWAY": "platform", "HIGHWAY": null, "REF": "Triangular Platform", "NETWORK": null, "PUBLIC_TRA": "platform", "OSM_TYPE": "node", "OSM_ID": 2713817444 }, "geometry": { "type": "Point", "coordinates": [ 79.5191103, 17.9827043 ] } },
{ "type": "Feature", "properties": { "NAME": "Teachers Colony Phase II", "NAME_EN": null, "NAME_RU": null, "RAILWAY": null, "HIGHWAY": "bus_stop", "REF": null, "NETWORK": null, "PUBLIC_TRA": null, "OSM_TYPE": "node", "OSM_ID": 2713948946 }, "geometry": { "type": "Point", "coordinates": [ 79.5356222, 17.9971466 ] } },
{ "type": "Feature", "properties": { "NAME": "Rani Rudramadevi", "NAME_EN": null, "NAME_RU": null, "RAILWAY": null, "HIGHWAY": "bus_stop", "REF": null, "NETWORK": null, "PUBLIC_TRA": null, "OSM_TYPE": "node", "OSM_ID": 2712691460 }, "geometry": { "type": "Point", "coordinates": [ 79.600674500000011, 17.988676 ] } },
{ "type": "Feature", "properties": { "NAME": "singoor bus stop", "NAME_EN": null, "NAME_RU": null, "RAILWAY": null, "HIGHWAY": "bus_stop", "REF": null, "NETWORK": null, "PUBLIC_TRA": null, "OSM_TYPE": "node", "OSM_ID": 3388989544 }, "geometry": { "type": "Point", "coordinates": [ 77.9464731, 17.7599456 ] } },
{ "type": "Feature", "properties": { "NAME": "Bhadrakali", "NAME_EN": null, "NAME_RU": null, "RAILWAY": null, "HIGHWAY": "bus_stop", "REF": null, "NETWORK": null, "PUBLIC_TRA": null, "OSM_TYPE": "node", "OSM_ID": 2712668726 }, "geometry": { "type": "Point", "coordinates": [ 79.590712, 17.9946108 ] } },
{ "type": "Feature", "properties": { "NAME": "Rangampet", "NAME_EN": null, "NAME_RU": null, "RAILWAY": null, "HIGHWAY": "bus_stop", "REF": null, "NETWORK": null, "PUBLIC_TRA": null, "OSM_TYPE": "node", "OSM_ID": 2712664012 }, "geometry": { "type": "Point", "coordinates": [ 79.5878739, 17.9973965 ] } },
{ "type": "Feature", "properties": { "NAME": "bus stop", "NAME_EN": null, "NAME_RU": null, "RAILWAY": null, "HIGHWAY": "bus_stop", "REF": null, "NETWORK": null, "PUBLIC_TRA": null, "OSM_TYPE": "node", "OSM_ID": 3384155183 }, "geometry": { "type": "Point", "coordinates": [ 78.420884, 17.4309126 ] } },
{ "type": "Feature", "properties": { "NAME": "Old Bus Stand", "NAME_EN": null, "NAME_RU": null, "RAILWAY": null, "HIGHWAY": "bus_stop", "REF": null, "NETWORK": null, "PUBLIC_TRA": null, "OSM_TYPE": "node", "OSM_ID": 2712460791 }, "geometry": { "type": "Point", "coordinates": [ 78.536137700000012, 19.6709727 ] } },
{ "type": "Feature", "properties": { "NAME": "Ashok Nagar", "NAME_EN": null, "NAME_RU": null, "RAILWAY": null, "HIGHWAY": "bus_stop", "REF": null, "NETWORK": null, "PUBLIC_TRA": null, "OSM_TYPE": "node", "OSM_ID": 2715277397 }, "geometry": { "type": "Point", "coordinates": [ 78.489664600000012, 17.4084652 ] } },
{ "type": "Feature", "properties": { "NAME": "Paradise", "NAME_EN": null, "NAME_RU": null, "RAILWAY": null, "HIGHWAY": "bus_stop", "REF": null, "NETWORK": null, "PUBLIC_TRA": null, "OSM_TYPE": "node", "OSM_ID": 2710993256 }, "geometry": { "type": "Point", "coordinates": [ 78.4881924, 17.440557 ] } },
{ "type": "Feature", "properties": { "NAME": "Liberty", "NAME_EN": null, "NAME_RU": null, "RAILWAY": null, "HIGHWAY": "bus_stop", "REF": null, "NETWORK": null, "PUBLIC_TRA": null, "OSM_TYPE": "node", "OSM_ID": 3170114035 }, "geometry": { "type": "Point", "coordinates": [ 78.476601100000011, 17.407482 ] } },
{ "type": "Feature", "properties": { "NAME": null, "NAME_EN": null, "NAME_RU": null, "RAILWAY": null, "HIGHWAY": "bus_stop", "REF": null, "NETWORK": null, "PUBLIC_TRA": null, "OSM_TYPE": "node", "OSM_ID": 3166260338 }, "geometry": { "type": "Point", "coordinates": [ 78.4209562, 17.4305963 ] } },
{ "type": "Feature", "properties": { "NAME": "Vaddepalli", "NAME_EN": null, "NAME_RU": null, "RAILWAY": null, "HIGHWAY": "bus_stop", "REF": null, "NETWORK": null, "PUBLIC_TRA": null, "OSM_TYPE": "node", "OSM_ID": 2713966825 }, "geometry": { "type": "Point", "coordinates": [ 79.531379300000012, 18.0049181 ] } },
{ "type": "Feature", "properties": { "NAME": "Jendala Bus stop, Gorentla", "NAME_EN": null, "NAME_RU": null, "RAILWAY": null, "HIGHWAY": "bus_stop", "REF": null, "NETWORK": null, "PUBLIC_TRA": null, "OSM_TYPE": "node", "OSM_ID": 3383999705 }, "geometry": { "type": "Point", "coordinates": [ 79.66706880000001, 17.3924794 ] } },
{ "type": "Feature", "properties": { "NAME": "bible house", "NAME_EN": null, "NAME_RU": null, "RAILWAY": null, "HIGHWAY": "bus_stop", "REF": null, "NETWORK": null, "PUBLIC_TRA": null, "OSM_TYPE": "node", "OSM_ID": 2710981523 }, "geometry": { "type": "Point", "coordinates": [ 78.49218230000001, 17.430425 ] } },
{ "type": "Feature", "properties": { "NAME": "Srinagar Colony", "NAME_EN": null, "NAME_RU": null, "RAILWAY": null, "HIGHWAY": "bus_stop", "REF": null, "NETWORK": null, "PUBLIC_TRA": null, "OSM_TYPE": "node", "OSM_ID": 2713935884 }, "geometry": { "type": "Point", "coordinates": [ 79.538776, 18.0048879 ] } },
{ "type": "Feature", "properties": { "NAME": "Ranigunj", "NAME_EN": null, "NAME_RU": null, "RAILWAY": null, "HIGHWAY": "bus_stop", "REF": null, "NETWORK": null, "PUBLIC_TRA": null, "OSM_TYPE": "node", "OSM_ID": 2710974553 }, "geometry": { "type": "Point", "coordinates": [ 78.4881643, 17.4294982 ] } },
{ "type": "Feature", "properties": { "NAME": "ashok nagar", "NAME_EN": null, "NAME_RU": null, "RAILWAY": null, "HIGHWAY": "bus_stop", "REF": null, "NETWORK": null, "PUBLIC_TRA": null, "OSM_TYPE": "node", "OSM_ID": 2712621717 }, "geometry": { "type": "Point", "coordinates": [ 78.4898639, 17.4089749 ] } },
{ "type": "Feature", "properties": { "NAME": "Rohini Hospital", "NAME_EN": null, "NAME_RU": null, "RAILWAY": null, "HIGHWAY": "bus_stop", "REF": null, "NETWORK": null, "PUBLIC_TRA": null, "OSM_TYPE": "node", "OSM_ID": 2713904310 }, "geometry": { "type": "Point", "coordinates": [ 79.5465954, 17.9948527 ] } },
{ "type": "Feature", "properties": { "NAME": "dubai gate bus stop", "NAME_EN": null, "NAME_RU": null, "RAILWAY": null, "HIGHWAY": "bus_stop", "REF": null, "NETWORK": null, "PUBLIC_TRA": null, "OSM_TYPE": "node", "OSM_ID": 2710922770 }, "geometry": { "type": "Point", "coordinates": [ 78.4811663, 17.4704621 ] } },
{ "type": "Feature", "properties": { "NAME": "Subedari District Bus Stop", "NAME_EN": null, "NAME_RU": null, "RAILWAY": null, "HIGHWAY": "bus_stop", "REF": null, "NETWORK": null, "PUBLIC_TRA": null, "OSM_TYPE": "node", "OSM_ID": 2713870425 }, "geometry": { "type": "Point", "coordinates": [ 79.5406581, 17.9932911 ] } },
{ "type": "Feature", "properties": { "NAME": "Suchitra Bus Stop", "NAME_EN": null, "NAME_RU": null, "RAILWAY": null, "HIGHWAY": "bus_stop", "REF": null, "NETWORK": null, "PUBLIC_TRA": null, "OSM_TYPE": "node", "OSM_ID": 2710839011 }, "geometry": { "type": "Point", "coordinates": [ 78.4765646, 17.4995311 ] } },
{ "type": "Feature", "properties": { "NAME": "ntr stadium bus stop", "NAME_EN": null, "NAME_RU": null, "RAILWAY": null, "HIGHWAY": "bus_stop", "REF": null, "NETWORK": null, "PUBLIC_TRA": null, "OSM_TYPE": "node", "OSM_ID": 2710816006 }, "geometry": { "type": "Point", "coordinates": [ 78.4849278, 17.4108441 ] } },
{ "type": "Feature", "properties": { "NAME": null, "NAME_EN": null, "NAME_RU": null, "RAILWAY": null, "HIGHWAY": "bus_stop", "REF": null, "NETWORK": null, "PUBLIC_TRA": null, "OSM_TYPE": "node", "OSM_ID": 2592353259 }, "geometry": { "type": "Point", "coordinates": [ 78.7929265, 17.4733286 ] } },
{ "type": "Feature", "properties": { "NAME": "Syndicate Bank Bus Stop", "NAME_EN": null, "NAME_RU": null, "RAILWAY": null, "HIGHWAY": "bus_stop", "REF": null, "NETWORK": null, "PUBLIC_TRA": null, "OSM_TYPE": "node", "OSM_ID": 2708229891 }, "geometry": { "type": "Point", "coordinates": [ 78.5120339, 17.3973693 ] } },
{ "type": "Feature", "properties": { "NAME": "Assembly", "NAME_EN": null, "NAME_RU": null, "RAILWAY": null, "HIGHWAY": "bus_stop", "REF": null, "NETWORK": null, "PUBLIC_TRA": null, "OSM_TYPE": "node", "OSM_ID": 2710957775 }, "geometry": { "type": "Point", "coordinates": [ 78.4696684, 17.4005079 ] } },
{ "type": "Feature", "properties": { "NAME": "hill fort", "NAME_EN": null, "NAME_RU": null, "RAILWAY": null, "HIGHWAY": "bus_stop", "REF": null, "NETWORK": null, "PUBLIC_TRA": null, "OSM_TYPE": "node", "OSM_ID": 2710944974 }, "geometry": { "type": "Point", "coordinates": [ 78.476374, 17.4050023 ] } },
{ "type": "Feature", "properties": { "NAME": "Mahavir Hospital", "NAME_EN": null, "NAME_RU": null, "RAILWAY": null, "HIGHWAY": "bus_stop", "REF": null, "NETWORK": null, "PUBLIC_TRA": null, "OSM_TYPE": "node", "OSM_ID": 2712439279 }, "geometry": { "type": "Point", "coordinates": [ 78.4583929, 17.4029577 ] } },
{ "type": "Feature", "properties": { "NAME": null, "NAME_EN": null, "NAME_RU": null, "RAILWAY": null, "HIGHWAY": "bus_stop", "REF": null, "NETWORK": null, "PUBLIC_TRA": null, "OSM_TYPE": "node", "OSM_ID": 2706499729 }, "geometry": { "type": "Point", "coordinates": [ 78.432875700000011, 17.4366898 ] } },
{ "type": "Feature", "properties": { "NAME": "NITW", "NAME_EN": null, "NAME_RU": null, "RAILWAY": null, "HIGHWAY": "bus_stop", "REF": null, "NETWORK": null, "PUBLIC_TRA": null, "OSM_TYPE": "node", "OSM_ID": 2713861575 }, "geometry": { "type": "Point", "coordinates": [ 79.5303674, 17.9884794 ] } },
{ "type": "Feature", "properties": { "NAME": "tacrotal (old bus stand)", "NAME_EN": null, "NAME_RU": null, "RAILWAY": null, "HIGHWAY": "bus_stop", "REF": null, "NETWORK": null, "PUBLIC_TRA": null, "OSM_TYPE": "node", "OSM_ID": 3735951326 }, "geometry": { "type": "Point", "coordinates": [ 78.5365248, 19.679278 ] } },
{ "type": "Feature", "properties": { "NAME": "Paradise", "NAME_EN": null, "NAME_RU": null, "RAILWAY": null, "HIGHWAY": "bus_stop", "REF": null, "NETWORK": null, "PUBLIC_TRA": null, "OSM_TYPE": "node", "OSM_ID": 2710989265 }, "geometry": { "type": "Point", "coordinates": [ 78.4862636, 17.443076 ] } },
{ "type": "Feature", "properties": { "NAME": "Basheerbagh", "NAME_EN": null, "NAME_RU": null, "RAILWAY": null, "HIGHWAY": "bus_stop", "REF": null, "NETWORK": null, "PUBLIC_TRA": null, "OSM_TYPE": "node", "OSM_ID": 2710984314 }, "geometry": { "type": "Point", "coordinates": [ 78.4769104, 17.4050023 ] } },
{ "type": "Feature", "properties": { "NAME": "Uppal Circle", "NAME_EN": null, "NAME_RU": null, "RAILWAY": null, "HIGHWAY": "bus_stop", "REF": null, "NETWORK": null, "PUBLIC_TRA": null, "OSM_TYPE": "node", "OSM_ID": 2585318421 }, "geometry": { "type": "Point", "coordinates": [ 78.5597002, 17.4013491 ] } },
{ "type": "Feature", "properties": { "NAME": "Syndicate Bank Bus Stop", "NAME_EN": null, "NAME_RU": null, "RAILWAY": null, "HIGHWAY": "bus_stop", "REF": null, "NETWORK": null, "PUBLIC_TRA": null, "OSM_TYPE": "node", "OSM_ID": 2708238383 }, "geometry": { "type": "Point", "coordinates": [ 78.5123783, 17.3983884 ] } },
{ "type": "Feature", "properties": { "NAME": null, "NAME_EN": null, "NAME_RU": null, "RAILWAY": null, "HIGHWAY": "bus_stop", "REF": null, "NETWORK": null, "PUBLIC_TRA": null, "OSM_TYPE": "node", "OSM_ID": 2728291752 }, "geometry": { "type": "Point", "coordinates": [ 78.418612700000011, 17.2973001 ] } },
{ "type": "Feature", "properties": { "NAME": "Uppal 'X' Road", "NAME_EN": null, "NAME_RU": null, "RAILWAY": null, "HIGHWAY": "bus_stop", "REF": null, "NETWORK": null, "PUBLIC_TRA": null, "OSM_TYPE": "node", "OSM_ID": 2585317337 }, "geometry": { "type": "Point", "coordinates": [ 78.56019, 17.4016983 ] } },
{ "type": "Feature", "properties": { "NAME": "Uppal", "NAME_EN": null, "NAME_RU": null, "RAILWAY": null, "HIGHWAY": "bus_stop", "REF": null, "NETWORK": null, "PUBLIC_TRA": null, "OSM_TYPE": "node", "OSM_ID": 2585284355 }, "geometry": { "type": "Point", "coordinates": [ 78.5688139, 17.4016547 ] } },
{ "type": "Feature", "properties": { "NAME": "Uppal 'X' Roads", "NAME_EN": null, "NAME_RU": null, "RAILWAY": null, "HIGHWAY": "bus_stop", "REF": null, "NETWORK": null, "PUBLIC_TRA": null, "OSM_TYPE": "node", "OSM_ID": 2584772012 }, "geometry": { "type": "Point", "coordinates": [ 78.5604475, 17.4007611 ] } },
{ "type": "Feature", "properties": { "NAME": "khairatabad", "NAME_EN": null, "NAME_RU": null, "RAILWAY": null, "HIGHWAY": "bus_stop", "REF": null, "NETWORK": null, "PUBLIC_TRA": null, "OSM_TYPE": "node", "OSM_ID": 2712432879 }, "geometry": { "type": "Point", "coordinates": [ 78.4609563, 17.413593 ] } },
{ "type": "Feature", "properties": { "NAME": "Radhika", "NAME_EN": null, "NAME_RU": null, "RAILWAY": null, "HIGHWAY": "bus_stop", "REF": null, "NETWORK": null, "PUBLIC_TRA": null, "OSM_TYPE": "node", "OSM_ID": 2653184521 }, "geometry": { "type": "Point", "coordinates": [ 78.563299, 17.4771342 ] } },
{ "type": "Feature", "properties": { "NAME": "Mythrinagar Bus Stop", "NAME_EN": null, "NAME_RU": null, "RAILWAY": null, "HIGHWAY": "bus_stop", "REF": null, "NETWORK": null, "PUBLIC_TRA": null, "OSM_TYPE": "node", "OSM_ID": 2616365983 }, "geometry": { "type": "Point", "coordinates": [ 78.3456791, 17.4951062 ] } },
{ "type": "Feature", "properties": { "NAME": "Temple Bus Stop", "NAME_EN": null, "NAME_RU": null, "RAILWAY": null, "HIGHWAY": "bus_stop", "REF": null, "NETWORK": null, "PUBLIC_TRA": null, "OSM_TYPE": "node", "OSM_ID": 2708667790 }, "geometry": { "type": "Point", "coordinates": [ 78.2987109, 17.4999711 ] } },
{ "type": "Feature", "properties": { "NAME": "church bus stop", "NAME_EN": null, "NAME_RU": null, "RAILWAY": null, "HIGHWAY": "bus_stop", "REF": null, "NETWORK": null, "PUBLIC_TRA": null, "OSM_TYPE": "node", "OSM_ID": 2708667288 }, "geometry": { "type": "Point", "coordinates": [ 78.3083811, 17.4990474 ] } },
{ "type": "Feature", "properties": { "NAME": null, "NAME_EN": null, "NAME_RU": null, "RAILWAY": null, "HIGHWAY": "bus_stop", "REF": null, "NETWORK": null, "PUBLIC_TRA": null, "OSM_TYPE": "node", "OSM_ID": 2478095042 }, "geometry": { "type": "Point", "coordinates": [ 78.3879646, 17.2618802 ] } },
{ "type": "Feature", "properties": { "NAME": null, "NAME_EN": null, "NAME_RU": null, "RAILWAY": null, "HIGHWAY": "bus_stop", "REF": null, "NETWORK": null, "PUBLIC_TRA": null, "OSM_TYPE": "node", "OSM_ID": 2578033345 }, "geometry": { "type": "Point", "coordinates": [ 78.482974500000012, 17.4112354 ] } },
{ "type": "Feature", "properties": { "NAME": "Allwyn Colony Bus Stop", "NAME_EN": null, "NAME_RU": null, "RAILWAY": null, "HIGHWAY": "bus_stop", "REF": null, "NETWORK": null, "PUBLIC_TRA": null, "OSM_TYPE": "node", "OSM_ID": 2616373415 }, "geometry": { "type": "Point", "coordinates": [ 78.3521625, 17.49476 ] } },
{ "type": "Feature", "properties": { "NAME": null, "NAME_EN": null, "NAME_RU": null, "RAILWAY": null, "HIGHWAY": "bus_stop", "REF": null, "NETWORK": null, "PUBLIC_TRA": null, "OSM_TYPE": "node", "OSM_ID": 2578026375 }, "geometry": { "type": "Point", "coordinates": [ 78.498148, 17.4063286 ] } },
{ "type": "Feature", "properties": { "NAME": "Moosarambagh Bus Stop", "NAME_EN": null, "NAME_RU": null, "RAILWAY": null, "HIGHWAY": "bus_stop", "REF": null, "NETWORK": null, "PUBLIC_TRA": null, "OSM_TYPE": "node", "OSM_ID": 2445999527 }, "geometry": { "type": "Point", "coordinates": [ 78.51456970000001, 17.3765437 ] } },
{ "type": "Feature", "properties": { "NAME": "james street", "NAME_EN": null, "NAME_RU": null, "RAILWAY": null, "HIGHWAY": "bus_stop", "REF": null, "NETWORK": null, "PUBLIC_TRA": null, "OSM_TYPE": "node", "OSM_ID": 2710978507 }, "geometry": { "type": "Point", "coordinates": [ 78.488303, 17.4354446 ] } },
{ "type": "Feature", "properties": { "NAME": "Chey Number", "NAME_EN": null, "NAME_RU": null, "RAILWAY": null, "HIGHWAY": "bus_stop", "REF": null, "NETWORK": null, "PUBLIC_TRA": null, "OSM_TYPE": "node", "OSM_ID": 2708113716 }, "geometry": { "type": "Point", "coordinates": [ 78.5108411, 17.3915088 ] } },
{ "type": "Feature", "properties": { "NAME": "Chey Number", "NAME_EN": null, "NAME_RU": null, "RAILWAY": null, "HIGHWAY": "bus_stop", "REF": null, "NETWORK": null, "PUBLIC_TRA": null, "OSM_TYPE": "node", "OSM_ID": 2708109161 }, "geometry": { "type": "Point", "coordinates": [ 78.5108995, 17.3911811 ] } },
{ "type": "Feature", "properties": { "NAME": "APSRTC Pushpak", "NAME_EN": null, "NAME_RU": null, "RAILWAY": null, "HIGHWAY": "bus_stop", "REF": null, "NETWORK": null, "PUBLIC_TRA": null, "OSM_TYPE": "node", "OSM_ID": 2708095579 }, "geometry": { "type": "Point", "coordinates": [ 78.4735778, 17.4084692 ] } },
{ "type": "Feature", "properties": { "NAME": "Yellandu X Road", "NAME_EN": null, "NAME_RU": null, "RAILWAY": null, "HIGHWAY": "bus_stop", "REF": null, "NETWORK": null, "PUBLIC_TRA": null, "OSM_TYPE": "node", "OSM_ID": 2403849708 }, "geometry": { "type": "Point", "coordinates": [ 80.1597393, 17.2515667 ] } },
{ "type": "Feature", "properties": { "NAME": "Water Tank", "NAME_EN": null, "NAME_RU": null, "RAILWAY": null, "HIGHWAY": "bus_stop", "REF": null, "NETWORK": null, "PUBLIC_TRA": null, "OSM_TYPE": "node", "OSM_ID": 2458342380 }, "geometry": { "type": "Point", "coordinates": [ 78.4479002, 17.4190085 ] } },
{ "type": "Feature", "properties": { "NAME": "Medical College Bus Stop", "NAME_EN": null, "NAME_RU": null, "RAILWAY": null, "HIGHWAY": "bus_stop", "REF": null, "NETWORK": null, "PUBLIC_TRA": null, "OSM_TYPE": "node", "OSM_ID": 2429965407 }, "geometry": { "type": "Point", "coordinates": [ 78.482828500000011, 17.3830912 ] } },
{ "type": "Feature", "properties": { "NAME": "City Center", "NAME_EN": null, "NAME_RU": null, "RAILWAY": null, "HIGHWAY": "bus_stop", "REF": null, "NETWORK": null, "PUBLIC_TRA": null, "OSM_TYPE": "node", "OSM_ID": 2496725867 }, "geometry": { "type": "Point", "coordinates": [ 78.44894330000001, 17.4158228 ] } },
{ "type": "Feature", "properties": { "NAME": "Batasingaram Bus Stop", "NAME_EN": null, "NAME_RU": null, "RAILWAY": null, "HIGHWAY": "bus_stop", "REF": null, "NETWORK": null, "PUBLIC_TRA": null, "OSM_TYPE": "node", "OSM_ID": 2431796320 }, "geometry": { "type": "Point", "coordinates": [ 78.729642500000011, 17.3051773 ] } },
{ "type": "Feature", "properties": { "NAME": "Nagole to Bandlaguda", "NAME_EN": null, "NAME_RU": null, "RAILWAY": null, "HIGHWAY": "bus_stop", "REF": null, "NETWORK": null, "PUBLIC_TRA": null, "OSM_TYPE": "node", "OSM_ID": 2412783668 }, "geometry": { "type": "Point", "coordinates": [ 78.5589077, 17.3765096 ] } },
{ "type": "Feature", "properties": { "NAME": "Yellandu X Road", "NAME_EN": null, "NAME_RU": null, "RAILWAY": null, "HIGHWAY": "bus_stop", "REF": null, "NETWORK": null, "PUBLIC_TRA": null, "OSM_TYPE": "node", "OSM_ID": 2403849715 }, "geometry": { "type": "Point", "coordinates": [ 80.1593076, 17.2520723 ] } },
{ "type": "Feature", "properties": { "NAME": null, "NAME_EN": null, "NAME_RU": null, "RAILWAY": null, "HIGHWAY": "bus_stop", "REF": null, "NETWORK": null, "PUBLIC_TRA": null, "OSM_TYPE": "node", "OSM_ID": 2403829370 }, "geometry": { "type": "Point", "coordinates": [ 78.4475007, 17.4317624 ] } },
{ "type": "Feature", "properties": { "NAME": "Bandlaguda", "NAME_EN": null, "NAME_RU": null, "RAILWAY": null, "HIGHWAY": "bus_stop", "REF": null, "NETWORK": null, "PUBLIC_TRA": null, "OSM_TYPE": "node", "OSM_ID": 2346905503 }, "geometry": { "type": "Point", "coordinates": [ 78.3876922, 17.3595939 ] } },
{ "type": "Feature", "properties": { "NAME": "JNTU Bus Stop", "NAME_EN": null, "NAME_RU": null, "RAILWAY": null, "HIGHWAY": "bus_stop", "REF": null, "NETWORK": null, "PUBLIC_TRA": null, "OSM_TYPE": "node", "OSM_ID": 2428122866 }, "geometry": { "type": "Point", "coordinates": [ 78.3944344, 17.496407 ] } },
{ "type": "Feature", "properties": { "NAME": "LB Nagar Ring Road", "NAME_EN": null, "NAME_RU": null, "RAILWAY": null, "HIGHWAY": "bus_stop", "REF": null, "NETWORK": null, "PUBLIC_TRA": null, "OSM_TYPE": "node", "OSM_ID": 2217960518 }, "geometry": { "type": "Point", "coordinates": [ 78.5508504, 17.3464728 ] } },
{ "type": "Feature", "properties": { "NAME": null, "NAME_EN": null, "NAME_RU": null, "RAILWAY": null, "HIGHWAY": "bus_stop", "REF": null, "NETWORK": null, "PUBLIC_TRA": null, "OSM_TYPE": "node", "OSM_ID": 2412783669 }, "geometry": { "type": "Point", "coordinates": [ 78.5606331, 17.3743807 ] } },
{ "type": "Feature", "properties": { "NAME": "Ashwapuram", "NAME_EN": null, "NAME_RU": null, "RAILWAY": null, "HIGHWAY": "bus_stop", "REF": null, "NETWORK": null, "PUBLIC_TRA": null, "OSM_TYPE": "node", "OSM_ID": 2280839064 }, "geometry": { "type": "Point", "coordinates": [ 80.8302648, 17.8373201 ] } },
{ "type": "Feature", "properties": { "NAME": "Secunderabad", "NAME_EN": null, "NAME_RU": null, "RAILWAY": null, "HIGHWAY": "bus_stop", "REF": null, "NETWORK": null, "PUBLIC_TRA": null, "OSM_TYPE": "node", "OSM_ID": 2496701778 }, "geometry": { "type": "Point", "coordinates": [ 78.5104189, 17.476244 ] } },
{ "type": "Feature", "properties": { "NAME": null, "NAME_EN": null, "NAME_RU": null, "RAILWAY": null, "HIGHWAY": "platform", "REF": null, "NETWORK": null, "PUBLIC_TRA": "platform", "OSM_TYPE": "node", "OSM_ID": 2233018556 }, "geometry": { "type": "Point", "coordinates": [ 78.4857837, 17.3784982 ] } },
{ "type": "Feature", "properties": { "NAME": "Nova Group of Institutions Bus Stop", "NAME_EN": null, "NAME_RU": null, "RAILWAY": null, "HIGHWAY": "bus_stop", "REF": null, "NETWORK": null, "PUBLIC_TRA": null, "OSM_TYPE": "node", "OSM_ID": 2431795673 }, "geometry": { "type": "Point", "coordinates": [ 78.7054653, 17.3061701 ] } },
{ "type": "Feature", "properties": { "NAME": null, "NAME_EN": null, "NAME_RU": null, "RAILWAY": null, "HIGHWAY": "platform", "REF": null, "NETWORK": null, "PUBLIC_TRA": "platform", "OSM_TYPE": "node", "OSM_ID": 2233018490 }, "geometry": { "type": "Point", "coordinates": [ 78.485598700000011, 17.3781019 ] } },
{ "type": "Feature", "properties": { "NAME": "Chilkur Balaji Temple", "NAME_EN": null, "NAME_RU": null, "RAILWAY": null, "HIGHWAY": "bus_stop", "REF": null, "NETWORK": null, "PUBLIC_TRA": null, "OSM_TYPE": "node", "OSM_ID": 2346908504 }, "geometry": { "type": "Point", "coordinates": [ 78.2999547, 17.3570645 ] } },
{ "type": "Feature", "properties": { "NAME": null, "NAME_EN": null, "NAME_RU": null, "RAILWAY": null, "HIGHWAY": "platform", "REF": null, "NETWORK": null, "PUBLIC_TRA": "platform", "OSM_TYPE": "node", "OSM_ID": 2233018467 }, "geometry": { "type": "Point", "coordinates": [ 78.4854189, 17.3788361 ] } },
{ "type": "Feature", "properties": { "NAME": "A.C. Guards", "NAME_EN": null, "NAME_RU": null, "RAILWAY": null, "HIGHWAY": "bus_stop", "REF": null, "NETWORK": null, "PUBLIC_TRA": null, "OSM_TYPE": "node", "OSM_ID": 2217968813 }, "geometry": { "type": "Point", "coordinates": [ 78.4594873, 17.4028042 ] } },
{ "type": "Feature", "properties": { "NAME": "Nagole X Road", "NAME_EN": null, "NAME_RU": null, "RAILWAY": null, "HIGHWAY": "bus_stop", "REF": null, "NETWORK": null, "PUBLIC_TRA": null, "OSM_TYPE": "node", "OSM_ID": 2412783672 }, "geometry": { "type": "Point", "coordinates": [ 78.5577208, 17.3774867 ] } },
{ "type": "Feature", "properties": { "NAME": "Secunderabad", "NAME_EN": null, "NAME_RU": null, "RAILWAY": null, "HIGHWAY": "bus_stop", "REF": null, "NETWORK": null, "PUBLIC_TRA": null, "OSM_TYPE": "node", "OSM_ID": 2214136534 }, "geometry": { "type": "Point", "coordinates": [ 78.50005010000001, 17.4359536 ] } },
{ "type": "Feature", "properties": { "NAME": null, "NAME_EN": null, "NAME_RU": null, "RAILWAY": null, "HIGHWAY": "bus_stop", "REF": null, "NETWORK": null, "PUBLIC_TRA": null, "OSM_TYPE": "node", "OSM_ID": 2578033346 }, "geometry": { "type": "Point", "coordinates": [ 78.476428500000011, 17.4107607 ] } },
{ "type": "Feature", "properties": { "NAME": "Alkapuri Bus Stop", "NAME_EN": null, "NAME_RU": null, "RAILWAY": null, "HIGHWAY": "bus_stop", "REF": null, "NETWORK": null, "PUBLIC_TRA": null, "OSM_TYPE": "node", "OSM_ID": 2430216676 }, "geometry": { "type": "Point", "coordinates": [ 78.5568927, 17.3651918 ] } },
{ "type": "Feature", "properties": { "NAME": "Nagole to Kothapet", "NAME_EN": null, "NAME_RU": null, "RAILWAY": null, "HIGHWAY": "bus_stop", "REF": null, "NETWORK": null, "PUBLIC_TRA": null, "OSM_TYPE": "node", "OSM_ID": 2412783670 }, "geometry": { "type": "Point", "coordinates": [ 78.557441, 17.3762526 ] } },
{ "type": "Feature", "properties": { "NAME": "Doctors Colony Bus Stop", "NAME_EN": null, "NAME_RU": null, "RAILWAY": null, "HIGHWAY": "bus_stop", "REF": null, "NETWORK": null, "PUBLIC_TRA": null, "OSM_TYPE": "node", "OSM_ID": 2217960511 }, "geometry": { "type": "Point", "coordinates": [ 78.5452928, 17.355619 ] } },
{ "type": "Feature", "properties": { "NAME": null, "NAME_EN": null, "NAME_RU": null, "RAILWAY": null, "HIGHWAY": "bus_stop", "REF": null, "NETWORK": null, "PUBLIC_TRA": null, "OSM_TYPE": "node", "OSM_ID": 2280843044 }, "geometry": { "type": "Point", "coordinates": [ 78.4924461, 17.4410694 ] } },
{ "type": "Feature", "properties": { "NAME": "Wellington Road", "NAME_EN": null, "NAME_RU": null, "RAILWAY": null, "HIGHWAY": "bus_stop", "REF": null, "NETWORK": null, "PUBLIC_TRA": null, "OSM_TYPE": "node", "OSM_ID": 2496703145 }, "geometry": { "type": "Point", "coordinates": [ 78.5082869, 17.4688315 ] } },
{ "type": "Feature", "properties": { "NAME": "Gandhi Hospital", "NAME_EN": null, "NAME_RU": null, "RAILWAY": null, "HIGHWAY": "bus_stop", "REF": null, "NETWORK": null, "PUBLIC_TRA": null, "OSM_TYPE": "node", "OSM_ID": 2212520219 }, "geometry": { "type": "Point", "coordinates": [ 78.501994700000012, 17.4241182 ] } },
{ "type": "Feature", "properties": { "NAME": "Bandlaguda", "NAME_EN": null, "NAME_RU": null, "RAILWAY": null, "HIGHWAY": "bus_stop", "REF": null, "NETWORK": null, "PUBLIC_TRA": null, "OSM_TYPE": "node", "OSM_ID": 2412780245 }, "geometry": { "type": "Point", "coordinates": [ 78.5694911, 17.3714708 ] } },
{ "type": "Feature", "properties": { "NAME": "patancheru bus station", "NAME_EN": null, "NAME_RU": null, "RAILWAY": null, "HIGHWAY": "bus_stop", "REF": null, "NETWORK": null, "PUBLIC_TRA": null, "OSM_TYPE": "node", "OSM_ID": 2465621481 }, "geometry": { "type": "Point", "coordinates": [ 78.2641359, 17.5287421 ] } },
{ "type": "Feature", "properties": { "NAME": null, "NAME_EN": null, "NAME_RU": null, "RAILWAY": null, "HIGHWAY": "bus_stop", "REF": null, "NETWORK": null, "PUBLIC_TRA": null, "OSM_TYPE": "node", "OSM_ID": 2217950184 }, "geometry": { "type": "Point", "coordinates": [ 78.5787408, 17.336273 ] } },
{ "type": "Feature", "properties": { "NAME": "Hayathnagar Bus Depot", "NAME_EN": null, "NAME_RU": null, "RAILWAY": null, "HIGHWAY": "bus_stop", "REF": null, "NETWORK": null, "PUBLIC_TRA": null, "OSM_TYPE": "node", "OSM_ID": 2199508163 }, "geometry": { "type": "Point", "coordinates": [ 78.5941849, 17.3301662 ] } },
{ "type": "Feature", "properties": { "NAME": "Bhagyalatha", "NAME_EN": null, "NAME_RU": null, "RAILWAY": null, "HIGHWAY": "bus_stop", "REF": null, "NETWORK": null, "PUBLIC_TRA": null, "OSM_TYPE": "node", "OSM_ID": 2199508162 }, "geometry": { "type": "Point", "coordinates": [ 78.58950990000001, 17.3327985 ] } },
{ "type": "Feature", "properties": { "NAME": "NMDC", "NAME_EN": null, "NAME_RU": null, "RAILWAY": null, "HIGHWAY": "bus_stop", "REF": null, "NETWORK": null, "PUBLIC_TRA": null, "OSM_TYPE": "node", "OSM_ID": 2217968814 }, "geometry": { "type": "Point", "coordinates": [ 78.4494264, 17.3987603 ] } },
{ "type": "Feature", "properties": { "NAME": "Bhagyalatha", "NAME_EN": null, "NAME_RU": null, "RAILWAY": null, "HIGHWAY": "bus_stop", "REF": null, "NETWORK": null, "PUBLIC_TRA": null, "OSM_TYPE": "node", "OSM_ID": 2217960523 }, "geometry": { "type": "Point", "coordinates": [ 78.5890542, 17.3327498 ] } },
{ "type": "Feature", "properties": { "NAME": "Nizam College", "NAME_EN": null, "NAME_RU": null, "RAILWAY": null, "HIGHWAY": "bus_stop", "REF": null, "NETWORK": null, "PUBLIC_TRA": null, "OSM_TYPE": "node", "OSM_ID": 2217940686 }, "geometry": { "type": "Point", "coordinates": [ 78.4753629, 17.3976544 ] } },
{ "type": "Feature", "properties": { "NAME": "High Court Colony", "NAME_EN": null, "NAME_RU": null, "RAILWAY": null, "HIGHWAY": "bus_stop", "REF": null, "NETWORK": null, "PUBLIC_TRA": null, "OSM_TYPE": "node", "OSM_ID": 2199524806 }, "geometry": { "type": "Point", "coordinates": [ 78.584783800000011, 17.3348161 ] } },
{ "type": "Feature", "properties": { "NAME": "Dwaraka Nagar", "NAME_EN": null, "NAME_RU": null, "RAILWAY": null, "HIGHWAY": "bus_stop", "REF": null, "NETWORK": null, "PUBLIC_TRA": null, "OSM_TYPE": "node", "OSM_ID": 2199524804 }, "geometry": { "type": "Point", "coordinates": [ 78.5435264, 17.3627858 ] } },
{ "type": "Feature", "properties": { "NAME": "LB Nagar", "NAME_EN": null, "NAME_RU": null, "RAILWAY": null, "HIGHWAY": "bus_stop", "REF": null, "NETWORK": null, "PUBLIC_TRA": null, "OSM_TYPE": "node", "OSM_ID": 2217960505 }, "geometry": { "type": "Point", "coordinates": [ 78.5475524, 17.3500083 ] } },
{ "type": "Feature", "properties": { "NAME": "Dilsukhnagar", "NAME_EN": null, "NAME_RU": null, "RAILWAY": null, "HIGHWAY": "bus_stop", "REF": null, "NETWORK": null, "PUBLIC_TRA": null, "OSM_TYPE": "node", "OSM_ID": 2217960497 }, "geometry": { "type": "Point", "coordinates": [ 78.5228597, 17.3684433 ] } },
{ "type": "Feature", "properties": { "NAME": "Chintalkunta", "NAME_EN": null, "NAME_RU": null, "RAILWAY": null, "HIGHWAY": "bus_stop", "REF": null, "NETWORK": null, "PUBLIC_TRA": null, "OSM_TYPE": "node", "OSM_ID": 2199508169 }, "geometry": { "type": "Point", "coordinates": [ 78.5625858, 17.3408353 ] } },
{ "type": "Feature", "properties": { "NAME": "Koti Women's College", "NAME_EN": null, "NAME_RU": null, "RAILWAY": null, "HIGHWAY": "bus_stop", "REF": null, "NETWORK": null, "PUBLIC_TRA": null, "OSM_TYPE": "node", "OSM_ID": 2197048423 }, "geometry": { "type": "Point", "coordinates": [ 78.4884201, 17.3850259 ] } },
{ "type": "Feature", "properties": { "NAME": "Taranagar", "NAME_EN": null, "NAME_RU": null, "RAILWAY": null, "HIGHWAY": "bus_stop", "REF": null, "NETWORK": null, "PUBLIC_TRA": "platform", "OSM_TYPE": "node", "OSM_ID": 2211345663 }, "geometry": { "type": "Point", "coordinates": [ 78.319338800000011, 17.489631 ] } },
{ "type": "Feature", "properties": { "NAME": null, "NAME_EN": null, "NAME_RU": null, "RAILWAY": null, "HIGHWAY": "bus_stop", "REF": null, "NETWORK": null, "PUBLIC_TRA": null, "OSM_TYPE": "node", "OSM_ID": 2210776943 }, "geometry": { "type": "Point", "coordinates": [ 78.3673638, 17.4584484 ] } },
{ "type": "Feature", "properties": { "NAME": "Vanasthalipuram", "NAME_EN": null, "NAME_RU": null, "RAILWAY": null, "HIGHWAY": "bus_stop", "REF": null, "NETWORK": null, "PUBLIC_TRA": null, "OSM_TYPE": "node", "OSM_ID": 2199508160 },